{
  "_meta": {
    "version": "1.0.0",
    "generated": "2025-12-13T00:00:00Z",
    "source": "Researched from Adelaide tourism, cruise guides, and wine region sources"
  },

  "port_slug": "adelaide",
  "port_name": "Adelaide",
  "port_pin": {
    "lat": -34.7780,
    "lon": 138.4900,
    "label": "Outer Harbor Cruise Terminal"
  },

  "bbox_hint": {
    "south": -35.00,
    "west": 138.40,
    "north": -34.70,
    "east": 139.00,
    "note": "Covers terminal, Adelaide CBD, Adelaide Hills"
  },

  "poi_ids": [],

  "label_overrides": {},

  "approximate_markers": [
    {"name": "Outer Harbor Terminal", "lat": -34.7780, "lon": 138.4900, "type": "port"},
    {"name": "Adelaide Central Market", "lat": -34.9305, "lon": 138.5870, "type": "market"},
    {"name": "Adelaide CBD", "lat": -34.9285, "lon": 138.6007, "type": "city"},
    {"name": "Hahndorf", "lat": -35.0286, "lon": 138.8075, "type": "historic"},
    {"name": "Barossa Valley", "lat": -34.5283, "lon": 138.9550, "type": "wine"},
    {"name": "Glenelg Beach", "lat": -34.9799, "lon": 138.5153, "type": "beach"}
  ],

  "transit_routes": [
    {
      "id": "train-cbd",
      "name": "Train to Adelaide CBD",
      "type": "train",
      "cost": "AUD 4-6",
      "duration": "45 minutes",
      "note": "Outer Harbor station 200m from terminal. Trains every 30 min."
    },
    {
      "id": "tour-barossa",
      "name": "Tour to Barossa Valley",
      "type": "tour",
      "cost": "AUD 150-200",
      "duration": "8 hours",
      "note": "80 km from port. Tours collect from terminal."
    }
  ],

  "featured_experiences": [
    {
      "name": "Barossa Valley Wine Tour",
      "type": "food",
      "duration": "Full day",
      "highlights": ["Shiraz tastings", "Historic wineries", "Artisan food"],
      "note": "Book in advance. Tours timed for cruise ship schedules."
    },
    {
      "name": "Adelaide Central Market",
      "type": "food",
      "duration": "2-3 hours",
      "highlights": ["Fresh produce", "Local food", "Coffee culture"],
      "note": "Closed Sundays and Mondays."
    },
    {
      "name": "Hahndorf German Village",
      "type": "cultural",
      "duration": "Half day",
      "highlights": ["Germanic architecture", "Local wineries", "Bakeries"],
      "note": "Australia's oldest German settlement (1839)."
    }
  ]
}
