{
  "_meta": {
    "version": "1.0.0",
    "generated": "2025-12-13T00:00:00Z",
    "source": "Researched from Jordan tourism and cruise port guides"
  },

  "port_slug": "aqaba",
  "port_name": "Aqaba",
  "port_pin": {
    "lat": 29.5267,
    "lon": 35.0078,
    "label": "Aqaba Cruise Terminal"
  },

  "bbox_hint": {
    "south": 29.40,
    "west": 34.90,
    "north": 29.65,
    "east": 35.15,
    "note": "Covers Aqaba city, Red Sea coast, access to Petra and Wadi Rum"
  },

  "poi_ids": [],

  "label_overrides": {},

  "approximate_markers": [
    {"name": "Aqaba Cruise Terminal", "lat": 29.5267, "lon": 35.0078, "type": "port"},
    {"name": "Aqaba Fort", "lat": 29.5265, "lon": 35.0050, "type": "historic"},
    {"name": "Aqaba Archaeological Museum", "lat": 29.5260, "lon": 35.0055, "type": "museum"},
    {"name": "Ayla Ancient City", "lat": 29.5275, "lon": 35.0025, "type": "historic"},
    {"name": "South Beach", "lat": 29.4500, "lon": 34.9700, "type": "beach"},
    {"name": "Japanese Garden Reef", "lat": 29.4350, "lon": 34.9650, "type": "diving"}
  ],

  "transit_routes": [
    {
      "id": "taxi-petra",
      "name": "Taxi to Petra",
      "type": "taxi",
      "cost": "$80-100 USD round trip",
      "duration": "2 hours each way",
      "note": "Most popular excursion. Book full day to explore properly."
    },
    {
      "id": "taxi-wadi-rum",
      "name": "Taxi to Wadi Rum",
      "type": "taxi",
      "cost": "$60-80 USD round trip",
      "duration": "1 hour each way",
      "note": "Mars-like desert landscape. Combine with jeep tour."
    },
    {
      "id": "taxi-city",
      "name": "Taxi in Aqaba",
      "type": "taxi",
      "cost": "$5-10 USD",
      "duration": "Varies",
      "note": "For exploring the city and beaches."
    }
  ],

  "featured_experiences": [
    {
      "name": "Petra Day Trip",
      "type": "historic",
      "duration": "Full day",
      "highlights": ["Treasury (Al-Khazneh)", "Ancient Nabataean city", "UNESCO World Heritage Site"],
      "note": "One of the New Seven Wonders of the World. Entry ~$70. Start early."
    },
    {
      "name": "Wadi Rum Desert",
      "type": "nature",
      "duration": "Half day",
      "highlights": ["Mars-like landscape", "Bedouin culture", "Lawrence of Arabia filming"],
      "note": "Jeep tours explore this stunning desert wilderness."
    },
    {
      "name": "Red Sea Diving",
      "type": "water",
      "duration": "Half day",
      "highlights": ["Coral reefs", "Marine life", "Clear warm water"],
      "note": "Some of the world's best accessible diving directly from shore."
    }
  ]
}
