{
  "port_slug": "bar-harbor",
  "port_name": "Bar Harbor",
  "port_pin": {
    "lat": 44.3917,
    "lon": -68.2042,
    "label": "Bar Harbor Cruise Pier"
  },
  "poi_ids": [
    "bar-harbor-pier",
    "acadia-national-park",
    "main-street-bar-harbor",
    "bar-island",
    "thunder-hole",
    "jordan-pond",
    "cadillac-mountain",
    "sand-beach-acadia",
    "otter-cliffs",
    "shore-path-bar-harbor",
    "stewmans-lobster-pound"
  ],
  "pois": [
    {
      "id": "bar-harbor-pier",
      "name": "Bar Harbor Cruise Pier",
      "lat": 44.3917,
      "lon": -68.2042,
      "type": "port"
    },
    {
      "id": "acadia-national-park",
      "name": "Acadia National Park",
      "lat": 44.3386,
      "lon": -68.2733,
      "type": "park"
    },
    {
      "id": "main-street-bar-harbor",
      "name": "Main Street",
      "lat": 44.3878,
      "lon": -68.2033,
      "type": "shopping"
    },
    {
      "id": "bar-island",
      "name": "Bar Island",
      "lat": 44.395,
      "lon": -68.2019,
      "type": "attraction"
    },
    {
      "id": "thunder-hole",
      "name": "Thunder Hole",
      "lat": 44.3208,
      "lon": -68.1892,
      "type": "landmark"
    },
    {
      "id": "jordan-pond",
      "name": "Jordan Pond House",
      "lat": 44.3206,
      "lon": -68.2531,
      "type": "attraction"
    },
    {
      "id": "cadillac-mountain",
      "name": "Cadillac Mountain Summit",
      "lat": 44.3525,
      "lon": -68.2256,
      "type": "landmark"
    },
    {
      "id": "sand-beach-acadia",
      "name": "Sand Beach",
      "lat": 44.3291,
      "lon": -68.1836,
      "type": "beach"
    },
    {
      "id": "otter-cliffs",
      "name": "Otter Cliffs",
      "lat": 44.3100,
      "lon": -68.1900,
      "type": "landmark"
    },
    {
      "id": "shore-path-bar-harbor",
      "name": "Shore Path",
      "lat": 44.3887,
      "lon": -68.2010,
      "type": "attraction"
    },
    {
      "id": "stewmans-lobster-pound",
      "name": "Stewman's Lobster Pound",
      "lat": 44.3920,
      "lon": -68.2050,
      "type": "restaurant"
    }
  ],
  "transit_routes": [
    {
      "name": "Island Explorer Shuttle",
      "type": "bus",
      "notes": "Free propane-powered shuttle. Late June through Columbus Day. Connects downtown to Acadia attractions."
    },
    {
      "name": "Oli's Trolley",
      "type": "tour",
      "notes": "Narrated trolley tour of Park Loop Road. 2.5 hours, $40-50. Book ahead."
    }
  ],
  "featured_experiences": [
    {
      "name": "Cadillac Mountain Sunrise",
      "poi_id": "cadillac-mountain",
      "notes": "Highest point on U.S. Atlantic coast. First sunrise in America (Oct-Mar). $6 timed reservation required."
    },
    {
      "name": "Jordan Pond Popovers",
      "poi_id": "jordan-pond",
      "notes": "Warm popovers with jam and butter on the lawn. Tradition since 1890s."
    },
    {
      "name": "Thunder Hole",
      "poi_id": "thunder-hole",
      "notes": "Dramatic wave sounds in narrow chasm. Best at incoming tide."
    }
  ],
  "bbox_hint": {
    "south": 44.30,
    "west": -68.30,
    "north": 44.40,
    "east": -68.18
  },
  "notes": "Tender port. Downtown walkable. Acadia requires shuttle or tour.",
  "generated": "2026-02-22T00:00:00Z"
}
