{
  "_meta": {
    "version": "1.0.0",
    "generated": "2025-12-13T00:00:00Z",
    "source": "Researched from Bora Bora tourism, cruise guides, and local sources"
  },

  "port_slug": "bora-bora",
  "port_name": "Bora Bora",
  "port_pin": {
    "lat": -16.5033,
    "lon": -151.7417,
    "label": "Vaitape Tender Pier"
  },

  "bbox_hint": {
    "south": -16.58,
    "west": -151.80,
    "north": -16.44,
    "east": -151.68,
    "note": "Covers Vaitape, lagoon, Mount Otemanu, motus"
  },

  "poi_ids": [],

  "label_overrides": {},

  "approximate_markers": [
    {"name": "Vaitape Village (Tender)", "lat": -16.5033, "lon": -151.7417, "type": "port"},
    {"name": "Mount Otemanu", "lat": -16.5000, "lon": -151.7333, "type": "landmark"},
    {"name": "Matira Beach", "lat": -16.5458, "lon": -151.7200, "type": "beach"},
    {"name": "Coral Gardens (Snorkeling)", "lat": -16.4800, "lon": -151.7500, "type": "nature"},
    {"name": "Faanui Bay (WWII site)", "lat": -16.4667, "lon": -151.7500, "type": "historic"},
    {"name": "Ship Anchorage (Pofai Bay)", "lat": -16.4900, "lon": -151.7600, "type": "port"}
  ],

  "transit_routes": [
    {
      "id": "tender-vaitape",
      "name": "Tender to Vaitape",
      "type": "tender",
      "cost": "Included",
      "duration": "5-10 minutes",
      "note": "Ship anchors in lagoon. Gorgeous views of Mt Otemanu."
    },
    {
      "id": "boat-snorkel",
      "name": "Lagoon Snorkel Tour",
      "type": "boat",
      "cost": "USD 100-150",
      "duration": "3-4 hours",
      "note": "Shark/ray feeding. Coral gardens. Motu beach stop."
    }
  ],

  "featured_experiences": [
    {
      "name": "Shark & Ray Snorkeling",
      "type": "nature",
      "duration": "3-4 hours",
      "highlights": ["Black-tip sharks", "Stingrays", "Coral gardens"],
      "note": "Safe, guided encounters. Unforgettable."
    },
    {
      "name": "Lagoon Tour",
      "type": "scenic",
      "duration": "Half day",
      "highlights": ["Motu beach", "Snorkeling", "Fresh fruit lunch"],
      "note": "Multiple operators at Vaitape pier."
    },
    {
      "name": "Island Circle Tour",
      "type": "scenic",
      "duration": "2-3 hours",
      "highlights": ["WWII guns", "Local villages", "Viewpoints"],
      "note": "32 km ring road. Rent car or join 4x4 tour."
    }
  ]
}
