{
  "_meta": {
    "version": "1.0.0",
    "generated": "2025-12-13T00:00:00Z",
    "source": "Researched from Los Cabos Tourism, cruise guides, and local sources"
  },

  "port_slug": "cabo-san-lucas",
  "port_name": "Cabo San Lucas",
  "port_pin": {
    "lat": 22.8905,
    "lon": -109.9167,
    "label": "Cabo San Lucas Marina"
  },

  "bbox_hint": {
    "south": 22.85,
    "west": -110.00,
    "north": 22.95,
    "east": -109.85,
    "note": "Covers marina, El Arco, beaches, downtown"
  },

  "poi_ids": [
    "cabo-marina",
    "el-arco",
    "lovers-beach",
    "divorce-beach",
    "pelican-rock",
    "medano-beach",
    "santa-maria-bay",
    "chileno-bay",
    "downtown-cabo",
    "marina-golden-zone"
  ],

  "label_overrides": {
    "el-arco": "El Arco (Land's End arch)",
    "lovers-beach": "Lover's Beach (Sea of Cortez side - swimmable)",
    "divorce-beach": "Divorce Beach (Pacific side - dangerous currents)",
    "pelican-rock": "Pelican Rock (sea lion colony)",
    "chileno-bay": "Chileno Bay (protected snorkeling)",
    "marina-golden-zone": "Marina Golden Zone (shopping & dining)"
  },

  "pois": [
    {"id": "cabo-marina", "name": "Cabo San Lucas Marina (Dock 5)", "lat": 22.8905, "lon": -109.9167, "type": "port"},
    {"id": "el-arco", "name": "El Arco (Land's End)", "lat": 22.8761, "lon": -109.8945, "type": "landmark"},
    {"id": "lovers-beach", "name": "Lover's Beach (Playa del Amor)", "lat": 22.8768, "lon": -109.8935, "type": "beach"},
    {"id": "divorce-beach", "name": "Divorce Beach (Pacific side)", "lat": 22.8775, "lon": -109.8960, "type": "beach"},
    {"id": "pelican-rock", "name": "Pelican Rock (sea lion colony)", "lat": 22.8782, "lon": -109.8925, "type": "nature"},
    {"id": "medano-beach", "name": "Medano Beach", "lat": 22.8862, "lon": -109.9070, "type": "beach"},
    {"id": "santa-maria-bay", "name": "Santa Maria Bay (snorkeling)", "lat": 22.9005, "lon": -109.8563, "type": "beach"},
    {"id": "chileno-bay", "name": "Chileno Bay (protected snorkeling)", "lat": 22.9128, "lon": -109.8410, "type": "beach"},
    {"id": "downtown-cabo", "name": "Downtown Cabo San Lucas", "lat": 22.8928, "lon": -109.9128, "type": "district"},
    {"id": "marina-golden-zone", "name": "Marina Golden Zone (shopping)", "lat": 22.8910, "lon": -109.9145, "type": "shopping"}
  ],

  "approximate_markers": [],

  "transit_routes": [
    {
      "id": "water-taxi-arco",
      "name": "Water Taxi to El Arco",
      "type": "water_taxi",
      "cost": "USD 15-20 round trip",
      "duration": "10 minutes",
      "connects": ["cabo-marina", "el-arco", "lovers-beach"],
      "note": "Glass-bottom boats common. Can drop at Lover's Beach."
    },
    {
      "id": "walk-medano",
      "name": "Walk to Medano Beach",
      "type": "walking",
      "cost": "Free",
      "duration": "15-20 minutes",
      "connects": ["cabo-marina", "medano-beach"],
      "note": "Main swimmable beach. Beach clubs, restaurants, water sports."
    },
    {
      "id": "taxi-santa-maria",
      "name": "Taxi to Santa Maria Bay",
      "type": "taxi",
      "cost": "USD 20-25",
      "duration": "15 minutes",
      "connects": ["cabo-marina", "santa-maria-bay"],
      "note": "Protected snorkeling bay. Calmer than main beaches."
    }
  ],

  "featured_experiences": [
    {
      "name": "El Arco & Lover's Beach",
      "type": "scenic",
      "duration": "2-3 hours",
      "highlights": ["Iconic arch", "Sea lions", "Beach time"],
      "note": "Water taxi essential. Don't swim at Divorce Beach (dangerous currents)."
    },
    {
      "name": "Whale Watching (Dec-Apr)",
      "type": "nature",
      "duration": "2-3 hours",
      "highlights": ["Humpback whales", "Gray whales", "Whale breaching"],
      "note": "Peak season January-March. Multiple operators at marina."
    },
    {
      "name": "Medano Beach Day",
      "type": "relaxation",
      "duration": "Half day",
      "highlights": ["Beach clubs", "Water sports", "People watching"],
      "note": "Only swimmable beach in town. Mango Deck popular. Can get rowdy."
    }
  ]
}
