{
  "_meta": {
    "version": "1.0.0",
    "generated": "2025-12-13T00:00:00Z",
    "source": "Researched from Cairns tourism, Great Barrier Reef guides, and local sources"
  },

  "port_slug": "cairns",
  "port_name": "Cairns",
  "port_pin": {
    "lat": -16.9250,
    "lon": 145.7753,
    "label": "Cairns Cruise Liner Terminal"
  },

  "bbox_hint": {
    "south": -17.00,
    "west": 145.70,
    "north": -16.85,
    "east": 145.85,
    "note": "Covers terminal, Esplanade, Reef Fleet Terminal"
  },

  "poi_ids": [],

  "label_overrides": {},

  "approximate_markers": [
    {"name": "Cruise Terminal (Wharf 2/3)", "lat": -16.9250, "lon": 145.7753, "type": "port"},
    {"name": "Reef Fleet Terminal", "lat": -16.9217, "lon": 145.7783, "type": "port"},
    {"name": "Cairns Esplanade Lagoon", "lat": -16.9208, "lon": 145.7772, "type": "beach"},
    {"name": "Night Markets", "lat": -16.9188, "lon": 145.7789, "type": "market"},
    {"name": "Kuranda Village", "lat": -16.8186, "lon": 145.6377, "type": "village"},
    {"name": "Great Barrier Reef", "lat": -16.5000, "lon": 146.0000, "type": "nature"}
  ],

  "transit_routes": [
    {
      "id": "boat-reef",
      "name": "Catamaran to Great Barrier Reef",
      "type": "boat",
      "cost": "AUD 200-300",
      "duration": "90 minutes to outer reef",
      "note": "Full day trip. Book in advance for cruise ship days."
    },
    {
      "id": "train-kuranda",
      "name": "Kuranda Scenic Railway",
      "type": "train",
      "cost": "AUD 55 one-way",
      "duration": "2 hours",
      "note": "Historic railway through rainforest. Combine with Skyrail."
    }
  ],

  "featured_experiences": [
    {
      "name": "Great Barrier Reef Snorkeling",
      "type": "nature",
      "duration": "Full day",
      "highlights": ["Coral gardens", "Tropical fish", "Sea turtles"],
      "note": "World Heritage site. Book early - cruise days sell out."
    },
    {
      "name": "Kuranda & Skyrail",
      "type": "scenic",
      "duration": "Half day",
      "highlights": ["Rainforest canopy", "Barron Falls", "Village markets"],
      "note": "Scenic railway up, Skyrail cableway down (or vice versa)."
    },
    {
      "name": "Daintree Rainforest",
      "type": "nature",
      "duration": "Full day",
      "highlights": ["180-million-year-old rainforest", "Crocodiles", "Cape Tribulation"],
      "note": "2 hours north. World's oldest rainforest."
    }
  ]
}
