{
  "_meta": {
    "version": "1.0.0",
    "generated": "2025-12-13T00:00:00Z",
    "source": "Researched from Cape Town tourism and cruise port guides"
  },

  "port_slug": "cape-town",
  "port_name": "Cape Town",
  "port_pin": {
    "lat": -33.9033,
    "lon": 18.4233,
    "label": "Cape Town Cruise Terminal"
  },

  "bbox_hint": {
    "south": -34.35,
    "west": 18.30,
    "north": -33.85,
    "east": 18.60,
    "note": "Covers Cape Town, Table Mountain, Cape Peninsula, V&A Waterfront"
  },

  "poi_ids": [],

  "label_overrides": {},

  "approximate_markers": [
    {"name": "Cape Town Cruise Terminal", "lat": -33.9033, "lon": 18.4233, "type": "port"},
    {"name": "V&A Waterfront", "lat": -33.9040, "lon": 18.4180, "type": "shopping"},
    {"name": "Table Mountain Cable Car", "lat": -33.9575, "lon": 18.4030, "type": "scenic"},
    {"name": "Robben Island Ferry", "lat": -33.9045, "lon": 18.4200, "type": "historic"},
    {"name": "Cape of Good Hope", "lat": -34.3568, "lon": 18.4740, "type": "nature"},
    {"name": "Kirstenbosch Gardens", "lat": -33.9878, "lon": 18.4325, "type": "garden"},
    {"name": "Bo-Kaap", "lat": -33.9214, "lon": 18.4165, "type": "neighborhood"}
  ],

  "transit_routes": [
    {
      "id": "walk-waterfront",
      "name": "Walk to V&A Waterfront",
      "type": "walking",
      "cost": "Free",
      "duration": "5-10 minutes",
      "note": "Cruise terminal is within the V&A Waterfront precinct."
    },
    {
      "id": "taxi-table",
      "name": "Taxi to Table Mountain",
      "type": "taxi",
      "cost": "R150-200 (~$8-12 USD)",
      "duration": "15-20 minutes",
      "note": "To cable car lower station. Check weather before going."
    },
    {
      "id": "tour-cape-point",
      "name": "Cape Peninsula Tour",
      "type": "tour",
      "cost": "$80-120 USD",
      "duration": "Full day",
      "note": "Best way to see peninsula, penguins, and Cape of Good Hope."
    }
  ],

  "featured_experiences": [
    {
      "name": "Table Mountain",
      "type": "scenic",
      "duration": "3-4 hours",
      "highlights": ["Cable car ride", "360-degree views", "Flat summit walks", "Flora"],
      "note": "New7Wonders of Nature. Check weather—often clouded. Book cableway online."
    },
    {
      "name": "Cape Peninsula Day Trip",
      "type": "nature",
      "duration": "Full day",
      "highlights": ["Cape of Good Hope", "Boulder's Beach penguins", "Chapman's Peak Drive"],
      "note": "Dramatic coastline, African penguins, and the meeting of two oceans."
    },
    {
      "name": "Robben Island",
      "type": "historic",
      "duration": "4 hours",
      "highlights": ["Nelson Mandela's cell", "Political prison history", "Ferry ride"],
      "note": "UNESCO World Heritage Site. Book in advance—limited daily tours."
    }
  ]
}
