{
  "_meta": {
    "version": "1.0.0",
    "generated": "2025-12-13T00:00:00Z",
    "source": "Researched from Cozumel Tourism, CruiseCritic, and local guides"
  },

  "port_slug": "cozumel",
  "port_name": "Cozumel",
  "port_pin": {
    "lat": 20.4431,
    "lon": -86.9861,
    "label": "Puerta Maya Cruise Terminal"
  },

  "bbox_hint": {
    "south": 20.30,
    "west": -87.10,
    "north": 20.55,
    "east": -86.80,
    "note": "Covers cruise piers, San Miguel, beach clubs, and reefs"
  },

  "poi_ids": [
    "cozumel-puerta-maya",
    "cozumel-international-pier",
    "cozumel-punta-langosta",
    "san-miguel-cozumel",
    "palancar-reef",
    "paradise-beach-cozumel",
    "mr-sanchos",
    "nachi-cocom",
    "el-cielo-cozumel",
    "san-gervasio",
    "cozumel-museum"
  ],

  "pois": [
    { "id": "cozumel-puerta-maya", "name": "Puerta Maya Cruise Terminal", "lat": 20.4431, "lon": -86.9861, "type": "port" },
    { "id": "cozumel-international-pier", "name": "International Pier (SSA)", "lat": 20.4485, "lon": -86.9875, "type": "port" },
    { "id": "cozumel-punta-langosta", "name": "Punta Langosta Pier", "lat": 20.5088, "lon": -86.9502, "type": "port" },
    { "id": "san-miguel-cozumel", "name": "Downtown San Miguel", "lat": 20.5103, "lon": -86.9476, "type": "town" },
    { "id": "palancar-reef", "name": "Palancar Reef", "lat": 20.35, "lon": -87.03, "type": "scenic" },
    { "id": "paradise-beach-cozumel", "name": "Paradise Beach", "lat": 20.4276, "lon": -86.9920, "type": "beach" },
    { "id": "mr-sanchos", "name": "Mr. Sanchos Beach Club", "lat": 20.4190, "lon": -86.9955, "type": "beach" },
    { "id": "nachi-cocom", "name": "Nachi Cocom Beach Club", "lat": 20.4140, "lon": -86.9970, "type": "beach" },
    { "id": "el-cielo-cozumel", "name": "El Cielo (Starfish Sandbar)", "lat": 20.38, "lon": -87.01, "type": "scenic" },
    { "id": "san-gervasio", "name": "San Gervasio Mayan Ruins", "lat": 20.4977, "lon": -86.8720, "type": "cultural" },
    { "id": "cozumel-museum", "name": "Cozumel Museum", "lat": 20.5112, "lon": -86.9467, "type": "cultural" }
  ],

  "label_overrides": {
    "palancar-reef": "Palancar Reef (legendary diving)",
    "el-cielo-cozumel": "El Cielo (starfish sandbar)",
    "san-gervasio": "San Gervasio (Mayan ruins)"
  },

  "approximate_markers": [
    "palancar-reef",
    "el-cielo-cozumel"
  ],

  "transit_routes": [
    {
      "id": "taxi-to-downtown",
      "name": "Taxi to San Miguel",
      "type": "taxi",
      "cost": "USD 22 each way",
      "duration": "10-15 minutes",
      "connects": ["cozumel-puerta-maya", "san-miguel-cozumel"],
      "note": "Settle fare before getting in. Not metered. Walk is 45 min along coast."
    },
    {
      "id": "beach-club-shuttle",
      "name": "Beach Club Shuttles",
      "type": "shuttle",
      "cost": "USD 8-15 round trip",
      "duration": "10-20 minutes",
      "connects": ["cozumel-puerta-maya", "paradise-beach-cozumel", "mr-sanchos"],
      "note": "Most beach clubs provide pickup from all cruise piers."
    }
  ],

  "featured_experiences": [
    {
      "name": "Snorkel Palancar Reef",
      "type": "tour",
      "duration": "Half day",
      "highlights": ["Legendary reef", "Sea turtles", "100+ ft visibility"],
      "note": "Book through ship or local operator. El Cielo often included."
    },
    {
      "name": "Beach Club Day",
      "type": "relaxation",
      "duration": "Full day",
      "highlights": ["All-inclusive food/drinks", "Pool and beach", "Water toys"],
      "note": "Paradise Beach (families), Mr. Sanchos (party), Nachi Cocom (quiet)."
    },
    {
      "name": "San Gervasio Mayan Ruins",
      "type": "cultural",
      "duration": "Half day",
      "highlights": ["Ancient Maya site", "Goddess Ixchel", "Jungle setting"],
      "note": "Less crowded than mainland ruins. Peaceful, atmospheric."
    }
  ]
}
