{
  "_meta": {
    "version": "1.0.0",
    "generated": "2025-12-13T00:00:00Z",
    "source": "Researched from Curaçao Tourism, CruiseCritic, and local guides"
  },

  "port_slug": "curacao",
  "port_name": "Curaçao",
  "port_pin": {
    "lat": 12.1103,
    "lon": -68.9356,
    "label": "Curaçao Cruise Terminal"
  },

  "bbox_hint": {
    "south": 12.05,
    "west": -69.20,
    "north": 12.40,
    "east": -68.85,
    "note": "Covers Willemstad, beaches, and west coast"
  },

  "poi_ids": [
    "curacao-cruise-terminal",
    "willemstad-punda",
    "queen-emma-bridge",
    "mambo-beach",
    "playa-kenepa",
    "curacao-sea-aquarium",
    "hato-caves",
    "landhuis-chobolobo",
    "plasa-bieu",
    "christoffelpark",
    "otrobanda-district"
  ],

  "label_overrides": {
    "willemstad-punda": "Punda (UNESCO colorful buildings)",
    "queen-emma-bridge": "Queen Emma Bridge (floating bridge)",
    "playa-kenepa": "Playa Kenepa (stunning cliff beach)"
  },

  "pois": [
    { "id": "curacao-cruise-terminal", "lat": 12.1103, "lon": -68.9356 },
    { "id": "willemstad-punda", "lat": 12.1089, "lon": -68.9317 },
    { "id": "queen-emma-bridge", "lat": 12.1086, "lon": -68.935 },
    { "id": "mambo-beach", "lat": 12.0833, "lon": -68.8889 },
    { "id": "playa-kenepa", "lat": 12.3417, "lon": -69.15 },
    { "id": "curacao-sea-aquarium", "lat": 12.0833, "lon": -68.8861 },
    { "id": "hato-caves", "lat": 12.2, "lon": -68.9667 },
    { "id": "landhuis-chobolobo", "lat": 12.1178, "lon": -68.9453 },
    { "id": "plasa-bieu", "lat": 12.1078, "lon": -68.9389 },
    { "id": "christoffelpark", "lat": 12.3375, "lon": -69.1125 },
    { "id": "otrobanda-district", "lat": 12.1083, "lon": -68.9383 }
  ],

  "approximate_markers": [],

  "transit_routes": [
    {
      "id": "walking-to-punda",
      "name": "Walk to Punda",
      "type": "walking",
      "cost": "Free",
      "duration": "10-15 minutes",
      "connects": ["curacao-cruise-terminal", "queen-emma-bridge", "willemstad-punda"],
      "note": "Cross floating Queen Emma Bridge to colorful Handelskade."
    },
    {
      "id": "taxi-to-beaches",
      "name": "Taxi to Beaches",
      "type": "taxi",
      "cost": "USD 30-50",
      "duration": "20-45 minutes",
      "connects": ["curacao-cruise-terminal", "mambo-beach", "playa-kenepa"],
      "note": "Playa Kenepa worth the longer trip for stunning scenery."
    }
  ],

  "featured_experiences": [
    {
      "name": "Willemstad Walking Tour",
      "type": "cultural",
      "duration": "2-3 hours",
      "highlights": ["UNESCO World Heritage", "Colorful Dutch buildings", "Floating bridge"],
      "note": "Walk from pier. Photography paradise. Handelskade iconic shots."
    },
    {
      "name": "Playa Kenepa Beach Day",
      "type": "relaxation",
      "duration": "Half to full day",
      "highlights": ["Cliff backdrop", "Turquoise water", "Two beach areas"],
      "note": "45 min taxi but worth it. Most beautiful beach on island."
    },
    {
      "name": "Sea Aquarium Experience",
      "type": "adventure",
      "duration": "Half day",
      "highlights": ["Dolphin encounters", "Sea lion shows", "Snorkeling"],
      "note": "Adjacent to Mambo Beach. Combine for full day."
    }
  ]
}
