{
  "_meta": {
    "version": "1.0.0",
    "generated": "2026-02-22T00:00:00Z",
    "source": "Researched from Grenada Tourism Authority, CruiseCritic, and local guides"
  },

  "port_slug": "grenada",
  "port_name": "Grenada",
  "port_pin": {
    "lat": 12.0525,
    "lon": -61.7516,
    "label": "St. George's Cruise Terminal"
  },

  "poi_ids": [
    "st-georges-cruise-terminal",
    "fort-george",
    "grand-anse-beach",
    "grenada-national-museum",
    "st-georges-market-square",
    "annandale-falls",
    "gouyave-nutmeg-station",
    "grand-etang-lake",
    "morne-rouge-beach",
    "carenage-st-georges",
    "underwater-sculpture-park"
  ],

  "pois": [
    { "id": "st-georges-cruise-terminal", "lat": 12.0525, "lon": -61.7516 },
    { "id": "fort-george", "lat": 12.0517, "lon": -61.7533 },
    { "id": "grand-anse-beach", "lat": 12.0217, "lon": -61.7650 },
    { "id": "grenada-national-museum", "lat": 12.0517, "lon": -61.7517 },
    { "id": "st-georges-market-square", "lat": 12.0533, "lon": -61.7500 },
    { "id": "annandale-falls", "lat": 12.0683, "lon": -61.7250 },
    { "id": "gouyave-nutmeg-station", "lat": 12.1650, "lon": -61.7300 },
    { "id": "grand-etang-lake", "lat": 12.0933, "lon": -61.7050 },
    { "id": "morne-rouge-beach", "lat": 12.0133, "lon": -61.7633 },
    { "id": "carenage-st-georges", "lat": 12.0500, "lon": -61.7517 },
    { "id": "underwater-sculpture-park", "lat": 12.0583, "lon": -61.7617 }
  ],

  "label_overrides": {
    "gouyave-nutmeg-station": "Gouyave Nutmeg Processing",
    "grand-etang-lake": "Grand Etang (rainforest)",
    "underwater-sculpture-park": "Underwater Sculptures"
  },

  "bbox_hint": {
    "south": 11.98,
    "west": -61.80,
    "north": 12.20,
    "east": -61.68,
    "note": "Covers St. George's, Grand Anse Beach, Grand Etang, Gouyave"
  },

  "approximate_markers": [],

  "transit_routes": [
    {
      "id": "taxi-to-grand-anse",
      "name": "Taxi to Grand Anse Beach",
      "type": "taxi",
      "cost": "$15-20 per car",
      "duration": "15 minutes",
      "connects": ["st-georges-cruise-terminal", "grand-anse-beach"],
      "note": "2 miles of powder-white sand. Water taxis also available ($8-10)."
    },
    {
      "id": "tour-to-nutmeg",
      "name": "Tour to Gouyave Nutmeg Station",
      "type": "bus",
      "cost": "$40-60 per person",
      "duration": "30 minutes",
      "connects": ["st-georges-cruise-terminal", "gouyave-nutmeg-station"],
      "note": "See nutmeg processing. Grenada produces 1/3 of world's nutmeg."
    }
  ],

  "featured_experiences": [
    {
      "name": "Grand Anse Beach Day",
      "type": "beach",
      "duration": "Half day",
      "highlights": ["2-mile white sand", "Calm water", "Beach bars", "Views of St. George's"],
      "note": "15-min taxi or water taxi from port. Beach chairs $5-10."
    },
    {
      "name": "Spice & Nutmeg Tour",
      "type": "cultural",
      "duration": "3-4 hours",
      "highlights": ["Nutmeg processing", "Cocoa plantations", "Spice gardens", "Rum distillery"],
      "note": "Gouyave station + spice plantations. Ship excursion $50-70."
    },
    {
      "name": "Rainforest & Waterfall Hike",
      "type": "nature",
      "duration": "3 hours",
      "highlights": ["Grand Etang Lake", "Annandale Falls", "Mona monkeys", "Rainforest trail"],
      "note": "Moderate stamina. Bring water shoes for Annandale Falls swim."
    }
  ]
}
