{
  "_meta": {
    "version": "1.0.0",
    "generated": "2025-12-13T00:00:00Z",
    "source": "Researched from Vietnam tourism, Cu Chi Tunnels, and cruise port guides"
  },

  "port_slug": "ho-chi-minh-city",
  "port_name": "Ho Chi Minh City",
  "port_pin": {
    "lat": 10.5420,
    "lon": 107.0300,
    "label": "Phu My Port (80km from city)"
  },

  "bbox_hint": {
    "south": 10.50,
    "west": 106.50,
    "north": 11.20,
    "east": 107.10,
    "note": "Wide area covering Phu My port, Cu Chi Tunnels, and HCMC center"
  },

  "poi_ids": [],

  "label_overrides": {},

  "approximate_markers": [
    {"name": "Phu My Port", "lat": 10.5420, "lon": 107.0300, "type": "port"},
    {"name": "Cu Chi Tunnels", "lat": 11.1422, "lon": 106.4625, "type": "historic"},
    {"name": "Reunification Palace", "lat": 10.7769, "lon": 106.6953, "type": "historic"},
    {"name": "Notre Dame Cathedral", "lat": 10.7796, "lon": 106.6992, "type": "church"},
    {"name": "Central Post Office", "lat": 10.7798, "lon": 106.7000, "type": "historic"},
    {"name": "Ben Thanh Market", "lat": 10.7725, "lon": 106.6980, "type": "market"},
    {"name": "War Remnants Museum", "lat": 10.7794, "lon": 106.6919, "type": "museum"}
  ],

  "transit_routes": [
    {
      "id": "transfer-city",
      "name": "Transfer to Ho Chi Minh City",
      "type": "tour",
      "cost": "Varies by cruise line",
      "duration": "1.5-2 hours each way",
      "note": "Ship excursion or pre-arranged transfer essential. Few taxis at port."
    },
    {
      "id": "tour-cuchi",
      "name": "Cu Chi Tunnels Day Tour",
      "type": "tour",
      "cost": "$50-100 USD",
      "duration": "Full day",
      "note": "Most tours combine Cu Chi with city highlights."
    }
  ],

  "featured_experiences": [
    {
      "name": "Cu Chi Tunnels",
      "type": "historic",
      "duration": "Half day",
      "highlights": ["Underground network", "War history", "Booby trap displays"],
      "note": "155-mile tunnel network. Essential Vietnam experience. 60 km NW of city."
    },
    {
      "name": "Reunification Palace",
      "type": "historic",
      "duration": "1-2 hours",
      "highlights": ["End of Vietnam War site", "1960s-70s time capsule", "War room"],
      "note": "Where the war ended April 30, 1975. Entry ~100,000 VND."
    },
    {
      "name": "Ben Thanh Market",
      "type": "market",
      "duration": "1-2 hours",
      "highlights": ["Souvenirs", "Street food", "Textiles"],
      "note": "Iconic market since 1914. Haggling expected. Best food stalls inside."
    }
  ]
}
