{
  "_meta": {
    "version": "1.0.0",
    "generated": "2025-12-13T00:00:00Z",
    "source": "Researched from Royal Caribbean, CruiseCritic, and guest reviews"
  },

  "port_slug": "labadee",
  "port_name": "Labadee",
  "port_pin": {
    "lat": 19.7819,
    "lon": -72.2417,
    "label": "Labadee Pier"
  },

  "bbox_hint": {
    "south": 19.77,
    "west": -72.26,
    "north": 19.80,
    "east": -72.22,
    "note": "Royal Caribbean's private peninsula on Haiti's north coast"
  },

  "poi_ids": [
    "labadee-pier",
    "labadee-dragon-coaster",
    "adrenaline-beach",
    "barefoot-beach",
    "dragon-tail-coaster",
    "labadee-artisan-market",
    "columbus-cove",
    "nellie-beach",
    "labadee-water-sports",
    "labadee-floating-bar",
    "labadee-cabanas"
  ],

  "pois": [
    { "id": "labadee-pier", "lat": 19.7819, "lon": -72.2417 },
    { "id": "labadee-dragon-coaster", "lat": 19.7835, "lon": -72.2445 },
    { "id": "adrenaline-beach", "lat": 19.7810, "lon": -72.2400 },
    { "id": "barefoot-beach", "lat": 19.7795, "lon": -72.2385 },
    { "id": "dragon-tail-coaster", "lat": 19.7840, "lon": -72.2440 },
    { "id": "labadee-artisan-market", "lat": 19.7815, "lon": -72.2410 },
    { "id": "columbus-cove", "lat": 19.7805, "lon": -72.2430 },
    { "id": "nellie-beach", "lat": 19.7790, "lon": -72.2395 },
    { "id": "labadee-water-sports", "lat": 19.7808, "lon": -72.2405 },
    { "id": "labadee-floating-bar", "lat": 19.7800, "lon": -72.2395 },
    { "id": "labadee-cabanas", "lat": 19.7798, "lon": -72.2380 }
  ],

  "label_overrides": {
    "labadee-dragon-coaster": "Dragon's Breath Zipline (2,600 ft!)",
    "dragon-tail-coaster": "Dragon's Tail Alpine Coaster",
    "barefoot-beach": "Barefoot Beach (family-friendly)"
  },

  "approximate_markers": [],

  "transit_routes": [
    {
      "id": "ship-to-pier",
      "name": "Direct Dock",
      "type": "walking",
      "cost": "Included",
      "duration": "Immediate",
      "connects": ["labadee-pier"],
      "note": "Ships dock directly at Labadee pier. No tender needed."
    },
    {
      "id": "beach-shuttle",
      "name": "Beach Area Shuttle",
      "type": "shuttle",
      "cost": "Free",
      "duration": "5 minutes",
      "connects": ["labadee-pier", "adrenaline-beach", "barefoot-beach"],
      "note": "Shuttle runs between beaches. Walking also easy on paths."
    }
  ],

  "featured_experiences": [
    {
      "name": "Dragon's Breath Flight Line",
      "type": "adventure",
      "duration": "30 minutes",
      "highlights": ["One of world's longest ziplines", "Over-water flight", "Mountain start"],
      "note": "2,600 feet of thrilling zipline. Additional fee. Book ahead."
    },
    {
      "name": "Dragon's Tail Coaster",
      "type": "adventure",
      "duration": "15-20 minutes",
      "highlights": ["Alpine coaster", "Control your speed", "Mountain views"],
      "note": "Caribbean's first alpine coaster. Gravity-powered sled."
    },
    {
      "name": "Beach Relaxation",
      "type": "relaxation",
      "duration": "Full day",
      "highlights": ["Multiple beaches", "Complimentary BBQ", "Hammocks"],
      "note": "Food and basic activities included. Calm waters, beautiful scenery."
    }
  ]
}
