{
  "port_slug": "marseille",
  "port_name": "Marseille",
  "port_pin": {
    "lat": 43.3000,
    "lon": 5.3667,
    "label": "Marseille Cruise Terminal"
  },
  "poi_ids": [
    "marseille-cruise-terminal",
    "vieux-port-marseille",
    "notre-dame-de-la-garde",
    "mucem-marseille",
    "le-panier-marseille",
    "calanques-marseille",
    "chateau-dif",
    "fort-saint-jean",
    "gare-saint-charles",
    "abbaye-saint-victor",
    "cours-julien"
  ],
  "pois": [
    {
      "id": "marseille-cruise-terminal",
      "name": "Marseille Provence Cruise Terminal",
      "lat": 43.3000,
      "lon": 5.3667,
      "type": "port"
    },
    {
      "id": "vieux-port-marseille",
      "name": "Vieux-Port (Old Port)",
      "lat": 43.2950,
      "lon": 5.3700,
      "type": "landmark"
    },
    {
      "id": "notre-dame-de-la-garde",
      "name": "Notre-Dame de la Garde",
      "lat": 43.2840,
      "lon": 5.3710,
      "type": "landmark"
    },
    {
      "id": "mucem-marseille",
      "name": "MuCEM (Museum of European and Mediterranean Civilizations)",
      "lat": 43.2966,
      "lon": 5.3610,
      "type": "museum"
    },
    {
      "id": "le-panier-marseille",
      "name": "Le Panier (Old Quarter)",
      "lat": 43.2990,
      "lon": 5.3670,
      "type": "neighborhood"
    },
    {
      "id": "calanques-marseille",
      "name": "Calanques National Park",
      "lat": 43.2100,
      "lon": 5.4400,
      "type": "park"
    },
    {
      "id": "chateau-dif",
      "name": "Chateau d'If",
      "lat": 43.2800,
      "lon": 5.3250,
      "type": "attraction"
    },
    {
      "id": "fort-saint-jean",
      "name": "Fort Saint-Jean",
      "lat": 43.2960,
      "lon": 5.3620,
      "type": "landmark"
    },
    {
      "id": "gare-saint-charles",
      "name": "Gare Saint-Charles (Train Station)",
      "lat": 43.3027,
      "lon": 5.3804,
      "type": "transport"
    },
    {
      "id": "abbaye-saint-victor",
      "name": "Abbaye Saint-Victor",
      "lat": 43.2900,
      "lon": 5.3650,
      "type": "landmark"
    },
    {
      "id": "cours-julien",
      "name": "Cours Julien (Street Art Quarter)",
      "lat": 43.2930,
      "lon": 5.3840,
      "type": "neighborhood"
    }
  ],
  "transit_routes": [
    {
      "name": "Metro Line 1",
      "type": "metro",
      "notes": "Connects Gare Saint-Charles to Vieux-Port and beyond. Single ticket EUR 1.70."
    },
    {
      "name": "Tourist Train",
      "type": "tour",
      "notes": "From Vieux-Port to Notre-Dame de la Garde. Approximately EUR 8."
    }
  ],
  "featured_experiences": [
    {
      "name": "Calanques Boat Tour",
      "poi_id": "calanques-marseille",
      "notes": "Boat tours from Old Port visit limestone fjords. EUR 20-30 independent, EUR 70-100 ship excursion."
    },
    {
      "name": "Notre-Dame de la Garde",
      "poi_id": "notre-dame-de-la-garde",
      "notes": "Panoramic views of the city and coast. Byzantine mosaics and centuries of maritime ex-voto offerings."
    },
    {
      "name": "Chateau d'If",
      "poi_id": "chateau-dif",
      "notes": "Island fortress from The Count of Monte Cristo. Ferry EUR 11 round trip from Old Port."
    }
  ],
  "bbox_hint": {
    "south": 43.20,
    "west": 5.30,
    "north": 43.32,
    "east": 5.45
  },
  "_meta": {
    "counts": {
      "poi_ids": 11,
      "pois": 11
    }
  },
  "notes": "Vieux Port walkable. Notre-Dame needs bus/taxi. Calanques boat tour recommended.",
  "generated": "2026-02-22T00:00:00Z"
}
