{
  "_meta": {
    "version": "1.0.0",
    "generated": "2025-12-13T00:00:00Z",
    "source": "Researched from Nagasaki tourism, Peace Memorial, and Japan cruise guides"
  },

  "port_slug": "nagasaki",
  "port_name": "Nagasaki",
  "port_pin": {
    "lat": 32.7433,
    "lon": 129.8740,
    "label": "Matsugae Pier Cruise Terminal"
  },

  "bbox_hint": {
    "south": 32.70,
    "west": 129.82,
    "north": 32.80,
    "east": 129.92,
    "note": "Covers terminal, Peace Park, Dejima, Glover Garden"
  },

  "poi_ids": [],

  "label_overrides": {},

  "approximate_markers": [
    {"name": "Matsugae Pier Terminal", "lat": 32.7433, "lon": 129.8740, "type": "port"},
    {"name": "Peace Memorial Park", "lat": 32.7728, "lon": 129.8639, "type": "memorial"},
    {"name": "Atomic Bomb Museum", "lat": 32.7728, "lon": 129.8644, "type": "museum"},
    {"name": "Dejima", "lat": 32.7425, "lon": 129.8700, "type": "historic"},
    {"name": "Glover Garden", "lat": 32.7356, "lon": 129.8656, "type": "park"},
    {"name": "Oura Church", "lat": 32.7333, "lon": 129.8667, "type": "church"},
    {"name": "Chinatown", "lat": 32.7394, "lon": 129.8714, "type": "neighborhood"}
  ],

  "transit_routes": [
    {
      "id": "tram-peace",
      "name": "Tram to Peace Park",
      "type": "tram",
      "cost": "¥150/ride or ¥600 day pass",
      "duration": "20 minutes",
      "note": "Easy tram system connects all major attractions."
    },
    {
      "id": "walk-dejima",
      "name": "Walk to Dejima",
      "type": "walking",
      "cost": "Free",
      "duration": "10 minutes",
      "note": "Dejima and Chinatown are walking distance from the port."
    }
  ],

  "featured_experiences": [
    {
      "name": "Peace Memorial Park & Museum",
      "type": "memorial",
      "duration": "2-3 hours",
      "highlights": ["Peace Statue", "Atomic Bomb Museum", "Reflection"],
      "note": "Moving memorial. Museum entry ¥200. Thoughtful and hopeful presentation."
    },
    {
      "name": "Dejima",
      "type": "historic",
      "duration": "1-2 hours",
      "highlights": ["Dutch trading history", "Restored buildings", "Japan's window to the West"],
      "note": "Japan's sole foreign trading post for 200 years. Entry ¥520."
    },
    {
      "name": "Glover Garden",
      "type": "park",
      "duration": "1-2 hours",
      "highlights": ["Meiji-era mansions", "Harbor views", "Madame Butterfly inspiration"],
      "note": "Western-style houses from Nagasaki's international era. Entry ¥620."
    }
  ]
}
