{
  "port_slug": "petersburg",
  "port_name": "Petersburg",
  "port_pin": {
    "lat": 56.8119,
    "lon": -132.955,
    "label": "Petersburg Cruise Dock"
  },
  "bbox_hint": {
    "south": 56.7,
    "west": -133.15,
    "north": 56.9,
    "east": -132.8
  },
  "poi_ids": [
    "petersburg-cruise-dock",
    "leconte-glacier",
    "clausen-memorial-museum",
    "hammer-slough",
    "sons-of-norway-hall",
    "sandy-beach-petersburg",
    "raven-trail",
    "petersburg-harbor",
    "mitkof-island",
    "blind-slough"
  ],
  "pois": [
    {
      "id": "petersburg-cruise-dock",
      "name": "Petersburg Cruise Dock",
      "lat": 56.8119,
      "lon": -132.955,
      "type": "port",
      "notes": "Small dock in town center. Only small ships can dock; large ships tender."
    },
    {
      "id": "leconte-glacier",
      "name": "LeConte Glacier",
      "lat": 56.83,
      "lon": -132.35,
      "type": "scenic",
      "notes": "Southernmost tidewater glacier in North America. Boat tour from Petersburg."
    },
    {
      "id": "clausen-memorial-museum",
      "name": "Clausen Memorial Museum",
      "lat": 56.812,
      "lon": -132.953,
      "type": "museum",
      "notes": "Norwegian heritage, Tlingit culture, and fishing industry history."
    },
    {
      "id": "hammer-slough",
      "name": "Hammer Slough",
      "lat": 56.81,
      "lon": -132.956,
      "type": "landmark",
      "notes": "Iconic colorful stilt houses over tidal slough. Most photographed scene in town."
    },
    {
      "id": "sons-of-norway-hall",
      "name": "Sons of Norway Hall",
      "lat": 56.8115,
      "lon": -132.954,
      "type": "cultural",
      "notes": "Norwegian cultural center. Rosemaling (decorative painting) throughout town."
    },
    {
      "id": "sandy-beach-petersburg",
      "name": "Sandy Beach Park",
      "lat": 56.805,
      "lon": -132.94,
      "type": "beach",
      "notes": "Tidal beach with views of the Wrangell Narrows and surrounding mountains."
    },
    {
      "id": "raven-trail",
      "name": "Raven Trail",
      "lat": 56.8,
      "lon": -132.93,
      "type": "nature",
      "notes": "4-mile hike with panoramic views of Frederick Sound and surrounding islands."
    },
    {
      "id": "petersburg-harbor",
      "name": "Petersburg Harbor",
      "lat": 56.811,
      "lon": -132.956,
      "type": "marina",
      "notes": "One of Alaska most productive fishing harbors. Norwegian heritage fishing fleet."
    },
    {
      "id": "mitkof-island",
      "name": "Mitkof Island",
      "lat": 56.75,
      "lon": -132.9,
      "type": "nature",
      "notes": "Island home to Petersburg. Crystal Lake, Blind River Rapids, and muskeg meadows."
    },
    {
      "id": "blind-slough",
      "name": "Blind Slough Recreation Area",
      "lat": 56.72,
      "lon": -132.85,
      "type": "nature",
      "notes": "Swan observatory and salmon viewing platform. Short drive from town."
    }
  ],
  "generated": "2026-02-21T00:00:00Z"
}
