{
  "_meta": {
    "version": "1.0.0",
    "generated": "2025-12-13T00:00:00Z",
    "source": "Researched from Phuket tourism, cruise guides, and local sources"
  },

  "port_slug": "phuket",
  "port_name": "Phuket",
  "port_pin": {
    "lat": 7.8300,
    "lon": 98.4200,
    "label": "Phuket Deep Sea Port"
  },

  "bbox_hint": {
    "south": 7.75,
    "west": 98.25,
    "north": 8.00,
    "east": 98.45,
    "note": "Covers terminal, Big Buddha, Old Town, Patong"
  },

  "poi_ids": [],

  "label_overrides": {},

  "approximate_markers": [
    {"name": "Deep Sea Port (Ao Makham)", "lat": 7.8300, "lon": 98.4200, "type": "port"},
    {"name": "Big Buddha", "lat": 7.8277, "lon": 98.3127, "type": "temple"},
    {"name": "Phuket Old Town", "lat": 7.8847, "lon": 98.3883, "type": "historic"},
    {"name": "Patong Beach", "lat": 7.8964, "lon": 98.2961, "type": "beach"},
    {"name": "Wat Chalong", "lat": 7.8424, "lon": 98.3388, "type": "temple"},
    {"name": "Kata Beach", "lat": 7.8200, "lon": 98.2983, "type": "beach"}
  ],

  "transit_routes": [
    {
      "id": "taxi-patong",
      "name": "Taxi to Patong Beach",
      "type": "taxi",
      "cost": "THB 600-800",
      "duration": "30-40 minutes",
      "note": "Most famous beach. Beach clubs and nightlife."
    },
    {
      "id": "taxi-oldtown",
      "name": "Taxi to Old Town",
      "type": "taxi",
      "cost": "THB 400-500",
      "duration": "20 minutes",
      "note": "Sino-Portuguese architecture. Great for photography."
    }
  ],

  "featured_experiences": [
    {
      "name": "Big Buddha",
      "type": "spiritual",
      "duration": "1-2 hours",
      "highlights": ["45m marble Buddha", "360-degree views", "Active temple"],
      "note": "Dress modestly. Free sarongs available."
    },
    {
      "name": "Phuket Old Town",
      "type": "cultural",
      "duration": "2-3 hours",
      "highlights": ["Sino-Portuguese shophouses", "Sunday market", "Local cafes"],
      "note": "Best for photography and authentic Thai food."
    },
    {
      "name": "Phang Nga Bay",
      "type": "nature",
      "duration": "Full day",
      "highlights": ["Limestone karsts", "James Bond Island", "Kayaking"],
      "note": "Requires full day. Check port timing carefully."
    }
  ]
}
