{
  "_meta": {
    "version": "1.1.0",
    "description": "Global POI index for port maps. POIs are referenced by ID in per-port manifests.",
    "updated": "2025-12-12",
    "schema": "/schema/poi-index.schema.json",
    "counts": {
      "aruba": 33,
      "anchorage": 21,
      "juneau": 17,
      "ketchikan": 19,
      "singapore": 18,
      "sydney": 12,
      "tokyo": 13,
      "hong-kong": 12,
      "shanghai": 9,
      "bangkok": 8,
      "bali": 8,
      "brisbane": 7,
      "auckland": 7,
      "south-pacific": 6,
      "cozumel": 11,
      "nassau": 8,
      "st-thomas": 7,
      "st-maarten": 8,
      "grand-cayman": 7,
      "cococay": 6,
      "labadee": 7,
      "jamaica": 8,
      "curacao": 7,
      "costa-maya": 6,
      "glacier-bay": 5,
      "haines": 5,
      "icy-strait-point": 5,
      "seward": 6,
      "sitka": 6,
      "skagway": 6,
      "tracy-arm": 4,
      "honolulu": 6,
      "maui": 6,
      "hilo": 5,
      "kona": 5,
      "nawiliwili": 5,
      "seattle": 5,
      "los-angeles": 5,
      "san-diego": 5,
      "galveston": 5,
      "new-orleans": 5,
      "dubai": 10,
      "abu-dhabi": 9,
      "barbados": 8,
      "st-lucia": 9,
      "barcelona": 8,
      "civitavecchia": 8,
      "venice": 8,
      "santorini": 6,
      "dubrovnik": 7,
      "athens": 7,
      "amsterdam": 7,
      "lisbon": 7,
      "naples": 7,
      "mykonos": 6,
      "monte-carlo": 6,
      "bermuda": 7,
      "key-west": 7,
      "kotor": 6,
      "rhodes": 7,
      "copenhagen": 7,
      "bergen": 6,
      "dublin": 7,
      "boston": 7,
      "bar-harbor": 6,
      "cannes": 6,
      "corfu": 6,
      "gibraltar": 6,
      "bordeaux": 6,
      "dover": 6
    }
  },

  "aruba-cruise-terminal": {
    "id": "aruba-cruise-terminal",
    "name": "Aruba Cruise Terminal",
    "aliases": ["cruise port", "cruise terminal", "cruise facility"],
    "lat": 12.5186,
    "lon": -70.0358,
    "type": "port",
    "geometry": "point",
    "port": "aruba"
  },

  "eagle-beach": {
    "id": "eagle-beach",
    "name": "Eagle Beach",
    "aliases": ["Eagle beach", "eagle beach aruba", "fofoti trees"],
    "lat": 12.5512,
    "lon": -70.0567,
    "type": "beach",
    "geometry": "line",
    "notes": "Famous for bent fofoti/divi-divi trees. Consistently ranked top 3 beaches worldwide.",
    "port": "aruba"
  },

  "palm-beach": {
    "id": "palm-beach",
    "name": "Palm Beach",
    "aliases": ["Palm beach aruba", "high-rise beach"],
    "lat": 12.5756,
    "lon": -70.0567,
    "type": "beach",
    "geometry": "line",
    "notes": "High-rise hotel strip with beach bars and water sports.",
    "port": "aruba"
  },

  "baby-beach": {
    "id": "baby-beach",
    "name": "Baby Beach",
    "aliases": ["Baby beach aruba", "baby beach snorkeling"],
    "lat": 12.4225,
    "lon": -69.8672,
    "type": "beach",
    "geometry": "polygon",
    "notes": "Protected lagoon at Aruba's southern tip. Best shore snorkeling on the island.",
    "port": "aruba"
  },

  "surfside-beach": {
    "id": "surfside-beach",
    "name": "Surfside Beach",
    "aliases": ["Surfside beach aruba"],
    "lat": 12.5089,
    "lon": -70.0294,
    "type": "beach",
    "geometry": "point",
    "notes": "Closest beach to cruise port - 15 minute walk.",
    "port": "aruba"
  },

  "governors-bay-beach": {
    "id": "governors-bay-beach",
    "name": "Governor's Bay Beach",
    "aliases": ["Governor's Bay", "Governors Bay"],
    "lat": 12.5225,
    "lon": -70.0375,
    "type": "beach",
    "geometry": "point",
    "notes": "Walkable from port via Wilhelmina Park bridge. Quiet cove with calm water.",
    "port": "aruba"
  },

  "arashi-beach": {
    "id": "arashi-beach",
    "name": "Arashi Beach",
    "aliases": ["Arashi beach aruba"],
    "lat": 12.6111,
    "lon": -70.0536,
    "type": "beach",
    "geometry": "line",
    "notes": "Northwest tip near California Lighthouse. Public palapas, uncrowded.",
    "port": "aruba"
  },

  "california-lighthouse": {
    "id": "california-lighthouse",
    "name": "California Lighthouse",
    "aliases": ["California lighthouse aruba", "lighthouse"],
    "lat": 12.6139,
    "lon": -70.0508,
    "type": "landmark",
    "geometry": "point",
    "notes": "Northwest tip of island. Popular sunset spot.",
    "port": "aruba"
  },

  "natural-bridge": {
    "id": "natural-bridge",
    "name": "Natural Bridge",
    "aliases": ["natural bridge aruba", "limestone arch"],
    "lat": 12.5867,
    "lon": -69.9908,
    "type": "landmark",
    "geometry": "point",
    "notes": "Photogenic limestone arch, ~7 miles from port.",
    "port": "aruba"
  },

  "arikok-national-park": {
    "id": "arikok-national-park",
    "name": "Arikok National Park",
    "aliases": ["Arikok", "national park"],
    "lat": 12.4917,
    "lon": -69.9422,
    "type": "nature",
    "geometry": "polygon",
    "notes": "Rugged landscape, popular for jeep tours.",
    "port": "aruba"
  },

  "oranjestad-downtown": {
    "id": "oranjestad-downtown",
    "name": "Downtown Oranjestad",
    "aliases": ["Oranjestad", "downtown", "town center"],
    "lat": 12.5186,
    "lon": -70.0333,
    "type": "district",
    "geometry": "polygon",
    "notes": "Dutch colonial architecture, main shopping area.",
    "port": "aruba"
  },

  "caya-betico-croes": {
    "id": "caya-betico-croes",
    "name": "Caya G.F. Betico Croes",
    "aliases": ["main street", "pedestrian street", "shopping street"],
    "lat": 12.5197,
    "lon": -70.0322,
    "type": "district",
    "geometry": "line",
    "notes": "Pedestrian-friendly shaded shopping street.",
    "port": "aruba"
  },

  "renaissance-marketplace": {
    "id": "renaissance-marketplace",
    "name": "Renaissance Marketplace",
    "aliases": ["Renaissance Mall", "duty-free shopping"],
    "lat": 12.5178,
    "lon": -70.0347,
    "type": "shopping",
    "geometry": "point",
    "notes": "Major duty-free shopping destination.",
    "port": "aruba"
  },

  "renaissance-island": {
    "id": "renaissance-island",
    "name": "Renaissance Island",
    "aliases": ["flamingo beach", "Renaissance private island"],
    "lat": 12.5083,
    "lon": -70.0403,
    "type": "attraction",
    "geometry": "polygon",
    "notes": "Private island with flamingos. Day passes available but pricey.",
    "port": "aruba"
  },

  "archaeological-museum-aruba": {
    "id": "archaeological-museum-aruba",
    "name": "Archaeological Museum of Aruba",
    "aliases": ["Archaeological Museum", "museum"],
    "lat": 12.5200,
    "lon": -70.0342,
    "type": "museum",
    "geometry": "point",
    "notes": "0.3 miles from terminals. Free admission. Collections span 2500 BC to modern day.",
    "port": "aruba"
  },

  "butterfly-farm-aruba": {
    "id": "butterfly-farm-aruba",
    "name": "Butterfly Farm",
    "aliases": ["Butterfly Farm aruba"],
    "lat": 12.5564,
    "lon": -70.0508,
    "type": "attraction",
    "geometry": "point",
    "notes": "About 4 miles from port. Tropical garden with butterflies from around the world.",
    "port": "aruba"
  },

  "donkey-sanctuary-aruba": {
    "id": "donkey-sanctuary-aruba",
    "name": "Donkey Sanctuary",
    "aliases": ["Donkey Sanctuary aruba", "donkeys"],
    "lat": 12.5086,
    "lon": -69.9519,
    "type": "attraction",
    "geometry": "point",
    "notes": "Six miles from port. Rescue haven where you can feed friendly donkeys.",
    "port": "aruba"
  },

  "wilhelmina-park": {
    "id": "wilhelmina-park",
    "name": "Wilhelmina Park",
    "aliases": ["Wilhelmina Park aruba"],
    "lat": 12.5211,
    "lon": -70.0375,
    "type": "park",
    "geometry": "polygon",
    "notes": "Near Governor's Bay Beach. Bridge access.",
    "port": "aruba"
  },

  "linear-park-aruba": {
    "id": "linear-park-aruba",
    "name": "Linear Park",
    "aliases": ["Linear Park waterfront"],
    "lat": 12.5175,
    "lon": -70.0378,
    "type": "park",
    "geometry": "line",
    "notes": "Waterfront promenade with restaurants.",
    "port": "aruba"
  },

  "casibari-rock-formations": {
    "id": "casibari-rock-formations",
    "name": "Casibari Rock Formations",
    "aliases": ["Casibari", "rock formations"],
    "lat": 12.5211,
    "lon": -69.9831,
    "type": "landmark",
    "geometry": "point",
    "notes": "Unique boulder formations. Popular on taxi tours.",
    "port": "aruba"
  },

  "hooiberg": {
    "id": "hooiberg",
    "name": "Hooiberg",
    "aliases": ["Haystack Mountain", "Mount Hooiberg"],
    "lat": 12.5158,
    "lon": -69.9792,
    "type": "landmark",
    "geometry": "point",
    "notes": "Aruba's famous 541-foot mountain. 561 steps to the top. On clear days you can see Venezuela.",
    "port": "aruba"
  },

  "san-nicolas": {
    "id": "san-nicolas",
    "name": "San Nicolas",
    "aliases": ["San Nicolas aruba", "Sunrise City"],
    "lat": 12.4372,
    "lon": -69.8875,
    "type": "district",
    "geometry": "polygon",
    "notes": "Aruba's cultural capital. 80+ street art murals by local and international artists. Former oil refinery town.",
    "port": "aruba"
  },

  "alto-vista-chapel": {
    "id": "alto-vista-chapel",
    "name": "Alto Vista Chapel",
    "aliases": ["Alto Vista", "Pilgrims Church"],
    "lat": 12.5925,
    "lon": -70.0311,
    "type": "landmark",
    "geometry": "point",
    "notes": "Historic yellow chapel on a hill. First Catholic church site in Aruba (1750). Popular for weddings and quiet reflection.",
    "port": "aruba"
  },

  "bushiribana-gold-mill": {
    "id": "bushiribana-gold-mill",
    "name": "Bushiribana Gold Mill Ruins",
    "aliases": ["Bushiribana", "gold mill ruins", "gold mill"],
    "lat": 12.5639,
    "lon": -69.9750,
    "type": "landmark",
    "geometry": "point",
    "notes": "Picturesque ruins of 19th-century gold smelter on north coast. Popular photo spot.",
    "port": "aruba"
  },

  "ayo-rock-formations": {
    "id": "ayo-rock-formations",
    "name": "Ayo Rock Formations",
    "aliases": ["Ayo", "Ayo rocks"],
    "lat": 12.5283,
    "lon": -69.9622,
    "type": "landmark",
    "geometry": "point",
    "notes": "Giant diorite boulders with ancient Arawak petroglyphs. More secluded than Casibari.",
    "port": "aruba"
  },

  "baby-natural-bridge": {
    "id": "baby-natural-bridge",
    "name": "Baby Natural Bridge",
    "aliases": ["baby bridge", "small natural bridge"],
    "lat": 12.5847,
    "lon": -69.9861,
    "type": "landmark",
    "geometry": "point",
    "notes": "Smaller but intact natural bridge near the collapsed main Natural Bridge.",
    "port": "aruba"
  },

  "malmok-beach": {
    "id": "malmok-beach",
    "name": "Malmok Beach",
    "aliases": ["Malmok", "Malmok aruba"],
    "lat": 12.5975,
    "lon": -70.0536,
    "type": "beach",
    "geometry": "line",
    "notes": "Popular snorkeling spot on northwest coast. Rocky entry but excellent marine life.",
    "port": "aruba"
  },

  "fishermans-huts": {
    "id": "fishermans-huts",
    "name": "Fisherman's Huts",
    "aliases": ["Fisherman's Huts aruba", "Hadicurari Beach"],
    "lat": 12.5881,
    "lon": -70.0572,
    "type": "beach",
    "geometry": "point",
    "notes": "World-class windsurfing and kiteboarding spot. Steady trade winds and shallow water.",
    "port": "aruba"
  },

  "depalm-island": {
    "id": "depalm-island",
    "name": "De Palm Island",
    "aliases": ["DePalm Island", "De Palm"],
    "lat": 12.4889,
    "lon": -70.0111,
    "type": "attraction",
    "geometry": "polygon",
    "notes": "All-inclusive island resort with waterpark, snorkel, SNUBA. Ferry from downtown. Family-friendly.",
    "port": "aruba"
  },

  "philips-animal-garden": {
    "id": "philips-animal-garden",
    "name": "Philip's Animal Garden",
    "aliases": ["Philips Animal Garden", "animal garden"],
    "lat": 12.5536,
    "lon": -69.9600,
    "type": "attraction",
    "geometry": "point",
    "notes": "Exotic animal sanctuary. Interactive experience with monkeys, kangaroos, and more. Great for families.",
    "port": "aruba"
  },

  "ostrich-farm-aruba": {
    "id": "ostrich-farm-aruba",
    "name": "Aruba Ostrich Farm",
    "aliases": ["Ostrich Farm", "ostrich farm"],
    "lat": 12.5300,
    "lon": -69.9400,
    "type": "attraction",
    "geometry": "point",
    "notes": "Feed and interact with ostriches, emus, and other exotic birds. Educational tours.",
    "port": "aruba"
  },

  "aruba-aloe-factory": {
    "id": "aruba-aloe-factory",
    "name": "Aruba Aloe Factory & Museum",
    "aliases": ["Aloe Vera Factory", "aloe factory", "Aruba Aloe"],
    "lat": 12.5239,
    "lon": -70.0175,
    "type": "attraction",
    "geometry": "point",
    "notes": "One of world's oldest aloe operations (since 1890). Free tours show production process. Gift shop.",
    "port": "aruba"
  },

  "anchorage-downtown": {
    "id": "anchorage-downtown",
    "name": "Downtown Anchorage",
    "aliases": ["downtown", "city center"],
    "lat": 61.2176,
    "lon": -149.8997,
    "type": "district",
    "geometry": "polygon",
    "notes": "Walkable downtown with shops, restaurants, and museums. Drop-off point for cruise transfers.",
    "port": "anchorage"
  },

  "ted-stevens-airport": {
    "id": "ted-stevens-airport",
    "name": "Ted Stevens International Airport",
    "aliases": ["ANC", "Anchorage Airport", "airport"],
    "lat": 61.1743,
    "lon": -149.9963,
    "type": "transport",
    "geometry": "point",
    "notes": "Major Alaska hub. Drop-off point for cruise transfers from Seward/Whittier.",
    "port": "anchorage"
  },

  "alaska-wildlife-conservation-center": {
    "id": "alaska-wildlife-conservation-center",
    "name": "Alaska Wildlife Conservation Center",
    "aliases": ["AWCC", "Wildlife Center", "wildlife sanctuary"],
    "lat": 60.8225,
    "lon": -148.9881,
    "type": "attraction",
    "geometry": "polygon",
    "notes": "Top-rated sanctuary with guaranteed bear, moose, musk ox, caribou, and eagle sightings. 30 min south on Seward Highway. Viator Experience Award winner.",
    "port": "anchorage"
  },

  "tony-knowles-coastal-trail": {
    "id": "tony-knowles-coastal-trail",
    "name": "Tony Knowles Coastal Trail",
    "aliases": ["Coastal Trail", "bike trail"],
    "lat": 61.2156,
    "lon": -149.9156,
    "type": "nature",
    "geometry": "line",
    "notes": "11-mile paved trail from downtown along Cook Inlet. Biking, walking, wildlife viewing. Moose frequently spotted.",
    "port": "anchorage"
  },

  "anchorage-museum": {
    "id": "anchorage-museum",
    "name": "Anchorage Museum",
    "aliases": ["museum", "Rasmuson Center"],
    "lat": 61.2164,
    "lon": -149.8858,
    "type": "museum",
    "geometry": "point",
    "notes": "World-class exhibits on Alaska Native cultures, Arctic ecology, and northern history. Smithsonian Arctic Studies Center inside. Rooftop garden with mountain views.",
    "port": "anchorage"
  },

  "alaska-native-heritage-center": {
    "id": "alaska-native-heritage-center",
    "name": "Alaska Native Heritage Center",
    "aliases": ["Heritage Center", "Native culture"],
    "lat": 61.2328,
    "lon": -149.7178,
    "type": "museum",
    "geometry": "polygon",
    "notes": "Living history with traditional dwellings from all Alaska Native groups. Dance performances, artisan demonstrations, cultural programs.",
    "port": "anchorage"
  },

  "flattop-mountain": {
    "id": "flattop-mountain",
    "name": "Flattop Mountain",
    "aliases": ["Flattop", "hiking"],
    "lat": 61.1039,
    "lon": -149.6833,
    "type": "nature",
    "geometry": "point",
    "notes": "Alaska's most-climbed peak. Moderate 3.5-mile round trip hike with panoramic views of Anchorage, Cook Inlet, and Denali on clear days.",
    "port": "anchorage"
  },

  "lake-hood": {
    "id": "lake-hood",
    "name": "Lake Hood Seaplane Base",
    "aliases": ["Lake Hood", "floatplane base", "seaplane"],
    "lat": 61.1800,
    "lon": -149.9650,
    "type": "landmark",
    "geometry": "polygon",
    "notes": "World's largest and busiest floatplane base. Watch takeoffs and landings. Starting point for flightseeing tours.",
    "port": "anchorage"
  },

  "earthquake-park": {
    "id": "earthquake-park",
    "name": "Earthquake Park",
    "aliases": ["1964 earthquake"],
    "lat": 61.2019,
    "lon": -149.9833,
    "type": "park",
    "geometry": "polygon",
    "notes": "Commemorates the devastating 1964 Good Friday Earthquake (9.2 magnitude). Interpretive signs explain the destruction. Great views of Cook Inlet.",
    "port": "anchorage"
  },

  "portage-glacier": {
    "id": "portage-glacier",
    "name": "Portage Glacier",
    "aliases": ["Portage", "glacier"],
    "lat": 60.7589,
    "lon": -148.8247,
    "type": "nature",
    "geometry": "polygon",
    "notes": "Accessible glacier 1 hour south. Boat tours to the ice face available in summer. Combine with Wildlife Conservation Center for a full day.",
    "port": "anchorage"
  },

  "matanuska-glacier": {
    "id": "matanuska-glacier",
    "name": "Matanuska Glacier",
    "aliases": ["Mat Glacier", "glacier walk"],
    "lat": 61.7667,
    "lon": -147.7500,
    "type": "nature",
    "geometry": "polygon",
    "notes": "Alaska's largest road-accessible glacier, 2 hours northeast. Guided ice walks explore crevasses and blue ice pools. Top-rated Viator tours.",
    "port": "anchorage"
  },

  "girdwood-alyeska": {
    "id": "girdwood-alyeska",
    "name": "Girdwood & Alyeska Resort",
    "aliases": ["Girdwood", "Alyeska", "ski resort"],
    "lat": 60.9683,
    "lon": -149.0981,
    "type": "attraction",
    "geometry": "polygon",
    "notes": "Mountain resort town 40 min south. Summer tram rides to 2,300 ft for panoramic views. Excellent hiking. Double Musky Inn for dinner.",
    "port": "anchorage"
  },

  "alaska-railroad-depot-anchorage": {
    "id": "alaska-railroad-depot-anchorage",
    "name": "Alaska Railroad Depot",
    "aliases": ["train station", "railroad"],
    "lat": 61.2208,
    "lon": -149.8861,
    "type": "transport",
    "geometry": "point",
    "notes": "Historic depot for scenic rail journeys to Seward, Whittier, Talkeetna, and Denali. GoldStar glass-domed cars recommended.",
    "port": "anchorage"
  },

  "kincaid-park": {
    "id": "kincaid-park",
    "name": "Kincaid Park",
    "aliases": ["Kincaid"],
    "lat": 61.1556,
    "lon": -150.0583,
    "type": "park",
    "geometry": "polygon",
    "notes": "1,400-acre park with 20+ miles of trails for hiking and biking. Cross-country skiing in winter. Moose and wildlife viewing.",
    "port": "anchorage"
  },

  "snow-city-cafe": {
    "id": "snow-city-cafe",
    "name": "Snow City Cafe",
    "aliases": ["Snow City", "breakfast"],
    "lat": 61.2169,
    "lon": -149.8869,
    "type": "dining",
    "geometry": "point",
    "notes": "Legendary breakfast spot — voted best breakfast in Anchorage for years. Reindeer sausage scramble, sourdough pancakes. Expect lines.",
    "port": "anchorage"
  },

  "mooses-tooth": {
    "id": "mooses-tooth",
    "name": "Moose's Tooth Pub & Pizzeria",
    "aliases": ["Moose's Tooth", "pizza"],
    "lat": 61.1903,
    "lon": -149.8689,
    "type": "dining",
    "geometry": "point",
    "notes": "Iconic Anchorage pizzeria. Named among America's best by Food Network. Try the Avalanche or Apricot Chicken pizza. 40+ local beers on tap.",
    "port": "anchorage"
  },

  "simon-and-seaforts": {
    "id": "simon-and-seaforts",
    "name": "Simon & Seafort's",
    "aliases": ["Simon's", "seafood"],
    "lat": 61.2189,
    "lon": -149.8942,
    "type": "dining",
    "geometry": "point",
    "notes": "Upscale landmark since 1978. Voted best seafood in Alaska. Sweeping Cook Inlet views. King crab, crab-stuffed halibut. Reservations recommended.",
    "port": "anchorage"
  },

  "humpys-alehouse": {
    "id": "humpys-alehouse",
    "name": "Humpy's Great Alaskan Alehouse",
    "aliases": ["Humpy's", "alehouse"],
    "lat": 61.2175,
    "lon": -149.8883,
    "type": "dining",
    "geometry": "point",
    "notes": "Downtown institution with halibut tacos and 50+ beers. Lively atmosphere. Good for groups.",
    "port": "anchorage"
  },

  "fire-island-bakeshop": {
    "id": "fire-island-bakeshop",
    "name": "Fire Island Rustic Bakeshop",
    "aliases": ["Fire Island", "bakery", "coffee"],
    "lat": 61.1931,
    "lon": -149.8836,
    "type": "dining",
    "geometry": "point",
    "notes": "Best coffee and pastries in town. Artisan bread shipped statewide. Perfect pre-adventure fuel.",
    "port": "anchorage"
  },

  "resolution-park": {
    "id": "resolution-park",
    "name": "Resolution Park & Captain Cook Monument",
    "aliases": ["Captain Cook statue", "Resolution Park"],
    "lat": 61.2192,
    "lon": -149.9014,
    "type": "landmark",
    "geometry": "point",
    "notes": "Downtown park with Captain Cook statue and panoramic views of Cook Inlet, Sleeping Lady (Mt. Susitna), and the Alaska Range.",
    "port": "anchorage"
  },

  "ship-creek": {
    "id": "ship-creek",
    "name": "Ship Creek",
    "aliases": ["salmon fishing", "urban fishing"],
    "lat": 61.2258,
    "lon": -149.8831,
    "type": "nature",
    "geometry": "line",
    "notes": "Urban salmon fishing in downtown Anchorage. King salmon (June), silver salmon (August-September). Fishing licenses required.",
    "port": "anchorage"
  },

  "juneau-cruise-terminal": {
    "id": "juneau-cruise-terminal",
    "name": "Juneau Cruise Terminal",
    "aliases": ["AJ Dock", "Franklin Dock", "cruise port"],
    "lat": 58.2994,
    "lon": -134.4081,
    "type": "port",
    "geometry": "point",
    "notes": "Direct dock in downtown Juneau. Walk off ship into the heart of the city in under 5 minutes.",
    "port": "juneau"
  },

  "mendenhall-glacier": {
    "id": "mendenhall-glacier",
    "name": "Mendenhall Glacier & Visitor Center",
    "aliases": ["Mendenhall", "glacier visitor center"],
    "lat": 58.4197,
    "lon": -134.5461,
    "type": "nature",
    "geometry": "polygon",
    "notes": "Alaska's only drive-up glacier. 13 miles from downtown, 13.6 miles long. World-class visitor center with exhibits, rangers, and stunning glacier views. Top-rated Juneau attraction.",
    "port": "juneau"
  },

  "nugget-falls": {
    "id": "nugget-falls",
    "name": "Nugget Falls",
    "aliases": ["Nugget Falls Trail", "waterfall"],
    "lat": 58.4208,
    "lon": -134.5314,
    "type": "nature",
    "geometry": "point",
    "notes": "Spectacular 377-foot waterfall with glacier backdrop. Easy 30-45 minute trail from Mendenhall Visitor Center. Can walk right up to the misty base.",
    "port": "juneau"
  },

  "mount-roberts-tramway": {
    "id": "mount-roberts-tramway",
    "name": "Mount Roberts Tramway",
    "aliases": ["tramway", "Mount Roberts", "Goldbelt tram"],
    "lat": 58.2983,
    "lon": -134.4072,
    "type": "attraction",
    "geometry": "point",
    "notes": "6-minute ride to 1,800 ft for panoramic views of Juneau, Gastineau Channel, and cruise ships. Raptor center, hiking trails, Timberline Bar at top. Departs steps from cruise dock.",
    "port": "juneau"
  },

  "auke-bay-harbor": {
    "id": "auke-bay-harbor",
    "name": "Auke Bay Harbor",
    "aliases": ["Auke Bay", "whale watching harbor"],
    "lat": 58.3817,
    "lon": -134.6469,
    "type": "port",
    "geometry": "point",
    "notes": "Departure point for most whale watching tours. 65+ migrating humpbacks frequent these waters. 30 minutes from downtown.",
    "port": "juneau"
  },

  "alaska-state-museum": {
    "id": "alaska-state-museum",
    "name": "Alaska State Museum",
    "aliases": ["state museum", "heritage center"],
    "lat": 58.3008,
    "lon": -134.4100,
    "type": "museum",
    "geometry": "point",
    "notes": "World-class museum of Alaska Native Tlingit culture and state history. Part of new heritage center complex. Short walk from cruise dock.",
    "port": "juneau"
  },

  "downtown-juneau": {
    "id": "downtown-juneau",
    "name": "Downtown Juneau",
    "aliases": ["downtown", "city center", "Franklin Street"],
    "lat": 58.3019,
    "lon": -134.4197,
    "type": "district",
    "geometry": "polygon",
    "notes": "Walkable downtown with art galleries, jewelry shops, restaurants. Alaska's capital but no roads in or out — arrive by air or sea only.",
    "port": "juneau"
  },

  "tracys-crab-shack": {
    "id": "tracys-crab-shack",
    "name": "Tracy's King Crab Shack",
    "aliases": ["Tracy's", "crab shack", "king crab"],
    "lat": 58.2997,
    "lon": -134.4083,
    "type": "dining",
    "geometry": "point",
    "notes": "Legendary Juneau institution. Fresh king crab legs, famous crab bisque, crab cakes. ~$100/lb for king crab. Expect lines but worth it. Two locations near cruise terminal.",
    "port": "juneau"
  },

  "red-dog-saloon": {
    "id": "red-dog-saloon",
    "name": "Red Dog Saloon",
    "aliases": ["Red Dog", "saloon"],
    "lat": 58.3003,
    "lon": -134.4089,
    "type": "dining",
    "geometry": "point",
    "notes": "Historic saloon from gold rush era. Sawdust floors, live music, mounted animal heads, mining memorabilia. Famous 'duck fart' shots. Overlooking cruise docks.",
    "port": "juneau"
  },

  "hangar-on-the-wharf": {
    "id": "hangar-on-the-wharf",
    "name": "The Hangar On The Wharf",
    "aliases": ["The Hangar", "hangar restaurant"],
    "lat": 58.2981,
    "lon": -134.4075,
    "type": "dining",
    "geometry": "point",
    "notes": "Upscale waterfront restaurant in historic seaplane hangar. Fresh Alaskan seafood, craft cocktails, harbor views. Popular with locals and cruisers.",
    "port": "juneau"
  },

  "macaulay-salmon-hatchery": {
    "id": "macaulay-salmon-hatchery",
    "name": "Macaulay Salmon Hatchery",
    "aliases": ["DIPAC", "salmon hatchery"],
    "lat": 58.2933,
    "lon": -134.4194,
    "type": "attraction",
    "geometry": "point",
    "notes": "Working hatchery with aquarium, touch tanks, and salmon ladder viewing. See thousands of returning salmon in late summer. 15-minute walk from cruise terminal.",
    "port": "juneau"
  },

  "glacier-gardens": {
    "id": "glacier-gardens",
    "name": "Glacier Gardens Rainforest Adventure",
    "aliases": ["Glacier Gardens"],
    "lat": 58.3639,
    "lon": -134.5550,
    "type": "attraction",
    "geometry": "polygon",
    "notes": "Botanical garden in Tongass National Forest with famous upside-down trees. Guided tours through temperate rainforest. Panoramic views from upper garden.",
    "port": "juneau"
  },

  "herbert-glacier": {
    "id": "herbert-glacier",
    "name": "Herbert Glacier",
    "aliases": ["Herbert Glacier trail"],
    "lat": 58.5083,
    "lon": -134.7250,
    "type": "nature",
    "geometry": "polygon",
    "notes": "Destination for helicopter glacier tours and dog sledding adventures. Stunning aerial views over Juneau Icefield. Land on the ice for once-in-a-lifetime experience.",
    "port": "juneau"
  },

  "juneau-icefield": {
    "id": "juneau-icefield",
    "name": "Juneau Icefield",
    "aliases": ["icefield", "glacier field"],
    "lat": 58.6500,
    "lon": -134.3000,
    "type": "nature",
    "geometry": "polygon",
    "notes": "1,500 square mile ice mass with 38 glaciers. Accessed by helicopter tours for glacier landings, dog sledding, and flightseeing. Visible from whale watching tours.",
    "port": "juneau"
  },

  "gold-creek-salmon-bake": {
    "id": "gold-creek-salmon-bake",
    "name": "Gold Creek Salmon Bake",
    "aliases": ["salmon bake"],
    "lat": 58.3225,
    "lon": -134.4411,
    "type": "dining",
    "geometry": "point",
    "notes": "All-you-can-eat fresh salmon, halibut, reindeer sausage cooked over open fires in rainforest setting. Includes gold panning, s'mores. Authentic Alaskan experience.",
    "port": "juneau"
  },

  "treadwell-mine-historic-trail": {
    "id": "treadwell-mine-historic-trail",
    "name": "Treadwell Mine Historic Trail",
    "aliases": ["Treadwell Mine", "gold mine trail"],
    "lat": 58.2825,
    "lon": -134.3744,
    "type": "nature",
    "geometry": "line",
    "notes": "Historic gold mine ruins on Douglas Island across from downtown. Easy hiking through temperate rainforest with interpretive signs. Free to explore.",
    "port": "juneau"
  },

  "pelimeni": {
    "id": "pelimeni",
    "name": "Pel'meni",
    "aliases": ["Pelmeni", "dumplings"],
    "lat": 58.3006,
    "lon": -134.4097,
    "type": "dining",
    "geometry": "point",
    "notes": "Tiny Russian dumpling shop famous with locals. Simple menu: pelmeni (dumplings) with various toppings. Cash only, limited seating, open late.",
    "port": "juneau"
  },

  "ketchikan-cruise-terminal": {
    "id": "ketchikan-cruise-terminal",
    "name": "Ketchikan Cruise Terminal",
    "aliases": ["Berth 3", "Berth 4", "cruise port"],
    "lat": 55.3422,
    "lon": -131.6461,
    "type": "port",
    "geometry": "point",
    "notes": "Walk directly off ship into downtown Ketchikan. Creek Street and shopping within 10 minutes.",
    "port": "ketchikan"
  },

  "downtown-ketchikan": {
    "id": "downtown-ketchikan",
    "name": "Downtown Ketchikan",
    "aliases": ["downtown", "town center", "Mission Street"],
    "lat": 55.3419,
    "lon": -131.6469,
    "type": "district",
    "geometry": "polygon",
    "notes": "Walkable downtown with jewelry shops, art galleries, and salmon-themed everything. Alaska's 'First City' — southernmost in the state.",
    "port": "ketchikan"
  },

  "creek-street": {
    "id": "creek-street",
    "name": "Creek Street",
    "aliases": ["boardwalk", "historic boardwalk", "red light district"],
    "lat": 55.3400,
    "lon": -131.6406,
    "type": "landmark",
    "geometry": "line",
    "notes": "Historic boardwalk on stilts over Ketchikan Creek. Former red-light district, now art galleries, shops, restaurants. Most photographed spot in Ketchikan. 10-minute walk from cruise terminal.",
    "port": "ketchikan"
  },

  "dollys-house-museum": {
    "id": "dollys-house-museum",
    "name": "Dolly's House Museum",
    "aliases": ["Dolly's House", "Dolly Arthur"],
    "lat": 55.3403,
    "lon": -131.6403,
    "type": "museum",
    "geometry": "point",
    "notes": "Historic former brothel on Creek Street, preserved as museum. Tells the colorful story of Ketchikan's rowdy past. Small admission fee.",
    "port": "ketchikan"
  },

  "totem-heritage-center": {
    "id": "totem-heritage-center",
    "name": "Totem Heritage Center",
    "aliases": ["totem museum", "heritage center"],
    "lat": 55.3372,
    "lon": -131.6361,
    "type": "museum",
    "geometry": "point",
    "notes": "World's largest collection of original 19th-century totem poles. Preserves artistic traditions of Tlingit, Haida, and Tsimshian peoples. Walking distance from downtown.",
    "port": "ketchikan"
  },

  "totem-bight-state-park": {
    "id": "totem-bight-state-park",
    "name": "Totem Bight State Historical Park",
    "aliases": ["Totem Bight", "totem park north"],
    "lat": 55.4242,
    "lon": -131.7236,
    "type": "attraction",
    "geometry": "polygon",
    "notes": "14 replica totem poles and reconstructed Tlingit clan house. 10 miles north of downtown. Free admission. Rainforest setting. One of best totem viewing sites in Alaska.",
    "port": "ketchikan"
  },

  "saxman-totem-park": {
    "id": "saxman-totem-park",
    "name": "Saxman Totem Park",
    "aliases": ["Saxman Village", "Saxman Native Village"],
    "lat": 55.3147,
    "lon": -131.5969,
    "type": "attraction",
    "geometry": "polygon",
    "notes": "Largest collection of standing totem poles in the world. Active carving shed where master carvers work. 2.5 miles south of downtown. Cultural programs and traditional dance performances available.",
    "port": "ketchikan"
  },

  "potlatch-park": {
    "id": "potlatch-park",
    "name": "Potlatch Park",
    "aliases": ["Potlatch Totem Park"],
    "lat": 55.3806,
    "lon": -131.6908,
    "type": "attraction",
    "geometry": "polygon",
    "notes": "Historic totem poles, authentic tribal house, and carving center. Some of the finest Native art in the world. North of downtown on North Tongass Highway.",
    "port": "ketchikan"
  },

  "misty-fjords-national-monument": {
    "id": "misty-fjords-national-monument",
    "name": "Misty Fjords National Monument",
    "aliases": ["Misty Fjords", "Misty Fiords"],
    "lat": 55.6000,
    "lon": -130.7500,
    "type": "nature",
    "geometry": "polygon",
    "notes": "2.3 million acres of wilderness with 3,000-ft granite cliffs, waterfalls, and remote alpine lakes. Access by floatplane (2-2.5 hours) or boat tour. Wildlife includes bears, eagles, mountain goats, whales. Most popular Ketchikan excursion.",
    "port": "ketchikan"
  },

  "great-alaskan-lumberjack-show": {
    "id": "great-alaskan-lumberjack-show",
    "name": "Great Alaskan Lumberjack Show",
    "aliases": ["Lumberjack Show", "lumberjacks"],
    "lat": 55.3433,
    "lon": -131.6483,
    "type": "attraction",
    "geometry": "point",
    "notes": "#1 rated attraction for first-time visitors. Professional lumberjacks compete in log rolling, chopping, sawing, and tree climbing. Covered/heated seating. 1 hour shows, $37 adults. At cruise harbor.",
    "port": "ketchikan"
  },

  "southeast-alaska-discovery-center": {
    "id": "southeast-alaska-discovery-center",
    "name": "Southeast Alaska Discovery Center",
    "aliases": ["Discovery Center", "visitor center"],
    "lat": 55.3414,
    "lon": -131.6458,
    "type": "museum",
    "geometry": "point",
    "notes": "Federal visitor center with exhibits on Tongass National Forest, Alaska Native cultures, and regional ecosystems. Theater, gift shop. Near cruise terminal.",
    "port": "ketchikan"
  },

  "cape-fox-lodge": {
    "id": "cape-fox-lodge",
    "name": "Cape Fox Lodge & Funicular",
    "aliases": ["Cape Fox", "funicular", "tram"],
    "lat": 55.3383,
    "lon": -131.6378,
    "type": "attraction",
    "geometry": "point",
    "notes": "Hilltop resort with panoramic views of Ketchikan and Tongass Narrows. Funicular ride up from Creek Street — free if dining at restaurant. Great viewpoint even without eating.",
    "port": "ketchikan"
  },

  "rainbird-trail-zipline": {
    "id": "rainbird-trail-zipline",
    "name": "Rainforest Zipline Adventures",
    "aliases": ["zipline", "canopy tour"],
    "lat": 55.3500,
    "lon": -131.6800,
    "type": "attraction",
    "geometry": "point",
    "notes": "Fly through rainforest canopy on multiple ziplines. Guides share ecology and history. Rain or shine — this is the rainforest capital! Various operators available.",
    "port": "ketchikan"
  },

  "thomas-basin-harbor": {
    "id": "thomas-basin-harbor",
    "name": "Thomas Basin Harbor",
    "aliases": ["Thomas Basin", "fishing harbor"],
    "lat": 55.3397,
    "lon": -131.6431,
    "type": "landmark",
    "geometry": "polygon",
    "notes": "Historic fishing fleet harbor. Colorful boats, sea lions underneath docks. Alaska Fish House restaurant overlooks the basin. Great for photography.",
    "port": "ketchikan"
  },

  "tongass-national-forest": {
    "id": "tongass-national-forest",
    "name": "Tongass National Forest",
    "aliases": ["Tongass", "national forest"],
    "lat": 55.4000,
    "lon": -131.7000,
    "type": "nature",
    "geometry": "polygon",
    "notes": "Largest national forest in the US at 17 million acres. Temperate rainforest surrounds Ketchikan. Hiking, wildlife viewing, kayaking. Ketchikan receives 162 inches of rain annually.",
    "port": "ketchikan"
  },

  "alaska-fish-house": {
    "id": "alaska-fish-house",
    "name": "Alaska Fish House",
    "aliases": ["Fish House"],
    "lat": 55.3397,
    "lon": -131.6433,
    "type": "dining",
    "geometry": "point",
    "notes": "Ketchikan's best seafood according to locals and visitors. Fresh fish & chips, salmon chowder, Alaskan sampler. Waterfront location at Thomas Basin. 'Best fish & chips I've ever had' — common review.",
    "port": "ketchikan"
  },

  "bar-harbor-restaurant": {
    "id": "bar-harbor-restaurant",
    "name": "Bar Harbor Restaurant",
    "aliases": ["Bar Harbor Ale House", "Bar Harbor"],
    "lat": 55.3425,
    "lon": -131.6467,
    "type": "dining",
    "geometry": "point",
    "notes": "Upscale seafood and BBQ with harbor views. Extensive craft beer selection. Fresh seasonal menu with wine pairings. One of the few Ketchikan restaurants where you wouldn't feel out of place in a tie.",
    "port": "ketchikan"
  },

  "annabelles-chowderhouse": {
    "id": "annabelles-chowderhouse",
    "name": "Annabelle's Famous Keg & Chowderhouse",
    "aliases": ["Annabelle's", "chowderhouse"],
    "lat": 55.3422,
    "lon": -131.6464,
    "type": "dining",
    "geometry": "point",
    "notes": "Historic restaurant in Gilmore Hotel building. Famous chowder, seafood, and American fare. Full bar. Consistently rated among top Ketchikan restaurants.",
    "port": "ketchikan"
  },

  "singapore-cruise-centre": {
    "id": "singapore-cruise-centre",
    "name": "Marina Bay Cruise Centre",
    "aliases": ["cruise terminal", "MBCCS", "cruise port"],
    "lat": 1.2694,
    "lon": 103.8631,
    "type": "port",
    "geometry": "point",
    "notes": "Singapore's main cruise terminal for large ships. Direct MRT access. 5-10 minutes to Gardens by the Bay.",
    "port": "singapore"
  },

  "harbourfront-cruise-terminal": {
    "id": "harbourfront-cruise-terminal",
    "name": "HarbourFront Cruise Centre",
    "aliases": ["HarbourFront", "older terminal"],
    "lat": 1.2644,
    "lon": 103.8203,
    "type": "port",
    "geometry": "point",
    "notes": "Secondary cruise terminal near VivoCity mall. MRT station directly below. Gateway to Sentosa Island.",
    "port": "singapore"
  },

  "gardens-by-the-bay": {
    "id": "gardens-by-the-bay",
    "name": "Gardens by the Bay",
    "aliases": ["Gardens", "Supertrees", "Cloud Forest"],
    "lat": 1.2816,
    "lon": 103.8636,
    "type": "attraction",
    "geometry": "polygon",
    "notes": "Iconic 101-hectare nature park with Supertree Grove, Cloud Forest dome (35m indoor waterfall), and Flower Dome. Free outdoor gardens, conservatories paid. Light show nightly at 7:45pm and 8:45pm.",
    "port": "singapore"
  },

  "marina-bay-sands": {
    "id": "marina-bay-sands",
    "name": "Marina Bay Sands",
    "aliases": ["MBS", "SkyPark", "infinity pool"],
    "lat": 1.2834,
    "lon": 103.8607,
    "type": "landmark",
    "geometry": "polygon",
    "notes": "Iconic triple-tower hotel with rooftop SkyPark observation deck (non-guests $32). Infinity pool hotel guests only. Shops, casino, celebrity chef restaurants below.",
    "port": "singapore"
  },

  "merlion-park": {
    "id": "merlion-park",
    "name": "Merlion Park",
    "aliases": ["Merlion", "lion fountain"],
    "lat": 1.2868,
    "lon": 103.8545,
    "type": "landmark",
    "geometry": "point",
    "notes": "Singapore's iconic half-lion, half-fish statue. Best views of Marina Bay skyline. Free entry. Great photo spot day and night.",
    "port": "singapore"
  },

  "singapore-chinatown": {
    "id": "singapore-chinatown",
    "name": "Chinatown",
    "aliases": ["Chinatown Singapore", "Pagoda Street"],
    "lat": 1.2833,
    "lon": 103.8439,
    "type": "district",
    "geometry": "polygon",
    "notes": "Historic district with temples, shophouses, and street food. Buddha Tooth Relic Temple, Chinatown Heritage Centre, hawker stalls. MRT: Chinatown.",
    "port": "singapore"
  },

  "little-india-singapore": {
    "id": "little-india-singapore",
    "name": "Little India",
    "aliases": ["Serangoon", "Little India"],
    "lat": 1.3067,
    "lon": 103.8518,
    "type": "district",
    "geometry": "polygon",
    "notes": "Vibrant ethnic quarter with colorful shophouses, Hindu temples, spice markets, and authentic Indian food. Tekka Centre hawker food. MRT: Little India.",
    "port": "singapore"
  },

  "lau-pa-sat": {
    "id": "lau-pa-sat",
    "name": "Lau Pa Sat Festival Market",
    "aliases": ["Lau Pa Sat", "Telok Ayer Market", "hawker center"],
    "lat": 1.2804,
    "lon": 103.8505,
    "type": "dining",
    "geometry": "point",
    "notes": "Historic Victorian cast-iron hawker center in CBD. Famous satay street opens evenings. Wide variety of local dishes. Walking distance from Marina Bay.",
    "port": "singapore"
  },

  "sentosa-island": {
    "id": "sentosa-island",
    "name": "Sentosa Island",
    "aliases": ["Sentosa", "Universal Studios", "SEA Aquarium"],
    "lat": 1.2494,
    "lon": 103.8303,
    "type": "attraction",
    "geometry": "polygon",
    "notes": "Resort island with Universal Studios, S.E.A. Aquarium (world's largest), beaches, Adventure Cove waterpark. Access by monorail, cable car, or walk from HarbourFront.",
    "port": "singapore"
  },

  "singapore-zoo": {
    "id": "singapore-zoo",
    "name": "Singapore Zoo & Night Safari",
    "aliases": ["Mandai Zoo", "Night Safari", "zoo"],
    "lat": 1.4043,
    "lon": 103.7930,
    "type": "attraction",
    "geometry": "polygon",
    "notes": "World-renowned open-concept zoo with 2,800 animals. Night Safari (7:15pm-midnight) is world's first nocturnal zoo. Feed hyenas, watch tribal fire show. 30 min from downtown.",
    "port": "singapore"
  },

  "orchard-road": {
    "id": "orchard-road",
    "name": "Orchard Road",
    "aliases": ["Orchard", "shopping street"],
    "lat": 1.3048,
    "lon": 103.8318,
    "type": "district",
    "geometry": "line",
    "notes": "Singapore's premier shopping boulevard. ION Orchard, Takashimaya, Paragon malls. Designer boutiques to budget shopping. MRT: Orchard.",
    "port": "singapore"
  },

  "clarke-quay": {
    "id": "clarke-quay",
    "name": "Clarke Quay",
    "aliases": ["Clarke Quay nightlife", "riverside"],
    "lat": 1.2906,
    "lon": 103.8465,
    "type": "district",
    "geometry": "polygon",
    "notes": "Riverside entertainment district with restaurants, bars, and nightclubs. Bumboat river cruises depart here. Colorful colonial warehouse conversions. MRT: Clarke Quay.",
    "port": "singapore"
  },

  "raffles-hotel": {
    "id": "raffles-hotel",
    "name": "Raffles Hotel",
    "aliases": ["Raffles", "Long Bar", "Singapore Sling"],
    "lat": 1.2949,
    "lon": 103.8548,
    "type": "landmark",
    "geometry": "point",
    "notes": "Colonial-era grand hotel (1887). Birthplace of the Singapore Sling cocktail. Long Bar open to non-guests. Restored to original glory in 2019.",
    "port": "singapore"
  },

  "jumbo-seafood": {
    "id": "jumbo-seafood",
    "name": "Jumbo Seafood",
    "aliases": ["Jumbo", "chili crab"],
    "lat": 1.2909,
    "lon": 103.8570,
    "type": "dining",
    "geometry": "point",
    "notes": "Singapore's most famous chili crab restaurant. Riverside location. Expect $60-80 for two with crab. Reservations essential. Multiple locations.",
    "port": "singapore"
  },

  "maxwell-food-centre": {
    "id": "maxwell-food-centre",
    "name": "Maxwell Food Centre",
    "aliases": ["Maxwell hawker", "Tian Tian"],
    "lat": 1.2804,
    "lon": 103.8448,
    "type": "dining",
    "geometry": "point",
    "notes": "Famous hawker center in Chinatown. Home to Tian Tian Hainanese Chicken Rice (Anthony Bourdain's pick). Over 100 stalls. Arrive early for popular stalls.",
    "port": "singapore"
  },

  "singapore-flyer": {
    "id": "singapore-flyer",
    "name": "Singapore Flyer",
    "aliases": ["observation wheel", "Flyer"],
    "lat": 1.2893,
    "lon": 103.8631,
    "type": "attraction",
    "geometry": "point",
    "notes": "165m observation wheel with panoramic Marina Bay views. 30-minute rotation. Premium experiences include champagne flights and dining capsules.",
    "port": "singapore"
  },

  "artscience-museum": {
    "id": "artscience-museum",
    "name": "ArtScience Museum",
    "aliases": ["lotus building", "ArtScience"],
    "lat": 1.2863,
    "lon": 103.8593,
    "type": "museum",
    "geometry": "point",
    "notes": "Distinctive lotus-shaped museum at Marina Bay Sands. Permanent 'Future World' digital art exhibition by teamLab. Rotating blockbuster exhibitions.",
    "port": "singapore"
  },

  "sydney-cruise-terminal": {
    "id": "sydney-cruise-terminal",
    "name": "Overseas Passenger Terminal",
    "aliases": ["Circular Quay terminal", "OPT"],
    "lat": -33.8568,
    "lon": 151.2103,
    "type": "port",
    "geometry": "point",
    "notes": "At Circular Quay, steps from Opera House and Harbour Bridge. Walk off ship into the heart of Sydney.",
    "port": "sydney"
  },

  "white-bay-cruise-terminal": {
    "id": "white-bay-cruise-terminal",
    "name": "White Bay Cruise Terminal",
    "aliases": ["White Bay", "Balmain terminal"],
    "lat": -33.8614,
    "lon": 151.1831,
    "type": "port",
    "geometry": "point",
    "notes": "Secondary terminal 15 minutes from city. Free shuttle to CBD. Light rail access. Used when OPT is full.",
    "port": "sydney"
  },

  "sydney-opera-house": {
    "id": "sydney-opera-house",
    "name": "Sydney Opera House",
    "aliases": ["Opera House", "Bennelong Point"],
    "lat": -33.8568,
    "lon": 151.2153,
    "type": "landmark",
    "geometry": "polygon",
    "notes": "UNESCO World Heritage Site and Sydney's most iconic building. Guided tours available, book ahead on cruise days. Multiple performance venues, restaurants. 5-minute walk from Circular Quay.",
    "port": "sydney"
  },

  "sydney-harbour-bridge": {
    "id": "sydney-harbour-bridge",
    "name": "Sydney Harbour Bridge",
    "aliases": ["Harbour Bridge", "Coathanger", "bridge climb"],
    "lat": -33.8523,
    "lon": 151.2108,
    "type": "landmark",
    "geometry": "line",
    "notes": "Iconic 1932 steel arch bridge. BridgeClimb experience ($150-300+) to summit for panoramic views. Free walk across pedestrian path. Pylon Lookout museum cheaper alternative.",
    "port": "sydney"
  },

  "bondi-beach": {
    "id": "bondi-beach",
    "name": "Bondi Beach",
    "aliases": ["Bondi", "famous beach"],
    "lat": -33.8915,
    "lon": 151.2767,
    "type": "beach",
    "geometry": "line",
    "notes": "Australia's most famous beach. Surf culture, ocean pools, cafes. Bondi to Bronte coastal walk highly recommended (6km, stunning views). Bus from Circular Quay 30-40 min.",
    "port": "sydney"
  },

  "the-rocks-sydney": {
    "id": "the-rocks-sydney",
    "name": "The Rocks",
    "aliases": ["The Rocks historic", "old Sydney"],
    "lat": -33.8594,
    "lon": 151.2081,
    "type": "district",
    "geometry": "polygon",
    "notes": "Sydney's oldest neighborhood. Cobblestone lanes, historic pubs, weekend markets, colonial architecture. Walking distance from cruise terminal.",
    "port": "sydney"
  },

  "darling-harbour": {
    "id": "darling-harbour",
    "name": "Darling Harbour",
    "aliases": ["Darling Harbor", "SEA LIFE Aquarium"],
    "lat": -33.8724,
    "lon": 151.1994,
    "type": "district",
    "geometry": "polygon",
    "notes": "Waterfront entertainment precinct. SEA LIFE Aquarium, WILD LIFE Zoo, Madame Tussauds. Restaurants, fireworks Saturday nights. Light rail and walking distance.",
    "port": "sydney"
  },

  "manly-beach": {
    "id": "manly-beach",
    "name": "Manly Beach",
    "aliases": ["Manly", "Manly ferry"],
    "lat": -33.7969,
    "lon": 151.2883,
    "type": "beach",
    "geometry": "line",
    "notes": "Laid-back beach town accessible by iconic 30-minute ferry from Circular Quay. Corso pedestrian mall, surf lessons, Shelly Beach snorkeling.",
    "port": "sydney"
  },

  "taronga-zoo": {
    "id": "taronga-zoo",
    "name": "Taronga Zoo",
    "aliases": ["Taronga", "zoo ferry"],
    "lat": -33.8436,
    "lon": 151.2411,
    "type": "attraction",
    "geometry": "polygon",
    "notes": "World-class zoo with harbor and Opera House views. 12-minute ferry from Circular Quay. Sky Safari cable car, keeper talks, native Australian animals.",
    "port": "sydney"
  },

  "opera-bar": {
    "id": "opera-bar",
    "name": "Opera Bar",
    "aliases": ["Opera Bar Sydney", "waterfront bar"],
    "lat": -33.8573,
    "lon": 151.2144,
    "type": "dining",
    "geometry": "point",
    "notes": "Iconic outdoor bar beneath Opera House sails. Harbour Bridge views, sunset drinks. Live music. Prime position but prices to match.",
    "port": "sydney"
  },

  "icebergs-dining-room": {
    "id": "icebergs-dining-room",
    "name": "Icebergs Dining Room & Bar",
    "aliases": ["Icebergs Bondi", "ocean pool"],
    "lat": -33.8944,
    "lon": 151.2749,
    "type": "dining",
    "geometry": "point",
    "notes": "Famous restaurant overlooking Bondi Beach and ocean pool. Italian cuisine. Book ahead for window seats. Below the iconic Icebergs swimming club.",
    "port": "sydney"
  },

  "royal-botanic-garden-sydney": {
    "id": "royal-botanic-garden-sydney",
    "name": "Royal Botanic Garden",
    "aliases": ["Botanic Gardens", "Mrs Macquaries Chair"],
    "lat": -33.8642,
    "lon": 151.2166,
    "type": "nature",
    "geometry": "polygon",
    "notes": "30-hectare garden in harbor foreshore. Free entry. Mrs Macquarie's Chair lookout with Opera House and Bridge views. Adjacent to Opera House.",
    "port": "sydney"
  },

  "tokyo-cruise-terminal": {
    "id": "tokyo-cruise-terminal",
    "name": "Tokyo International Cruise Terminal",
    "aliases": ["Tokyo cruise port", "Harumi"],
    "lat": 35.6469,
    "lon": 139.7825,
    "type": "port",
    "geometry": "point",
    "notes": "New cruise terminal in Tokyo Bay. Shuttle bus connections to central Tokyo. Used by larger vessels.",
    "port": "tokyo"
  },

  "osanbashi-yokohama": {
    "id": "osanbashi-yokohama",
    "name": "Osanbashi Pier",
    "aliases": ["Osanbashi", "Yokohama cruise terminal"],
    "lat": 35.4508,
    "lon": 139.6478,
    "type": "port",
    "geometry": "point",
    "notes": "Yokohama's main cruise terminal. 10-minute walk to Chinatown. 30-minute train to central Tokyo. Stunning rooftop deck with city views.",
    "port": "tokyo"
  },

  "tsukiji-outer-market": {
    "id": "tsukiji-outer-market",
    "name": "Tsukiji Outer Market",
    "aliases": ["Tsukiji", "fish market", "sushi breakfast"],
    "lat": 35.6654,
    "lon": 139.7707,
    "type": "dining",
    "geometry": "polygon",
    "notes": "Famous food market. Freshest sushi breakfast, tamagoyaki, street food. Inner wholesale moved to Toyosu but outer market thrives. Go early.",
    "port": "tokyo"
  },

  "teamlab-planets": {
    "id": "teamlab-planets",
    "name": "teamLab Planets TOKYO",
    "aliases": ["teamLab", "digital art museum"],
    "lat": 35.6437,
    "lon": 139.7850,
    "type": "attraction",
    "geometry": "point",
    "notes": "Immersive digital art museum. Wade through water, walk barefoot through infinite spaces. Book tickets days ahead online. Mind-blowing experience.",
    "port": "tokyo"
  },

  "shibuya-crossing": {
    "id": "shibuya-crossing",
    "name": "Shibuya Crossing",
    "aliases": ["Shibuya scramble", "world's busiest crossing"],
    "lat": 35.6595,
    "lon": 139.7004,
    "type": "landmark",
    "geometry": "point",
    "notes": "World's busiest pedestrian crossing. 3,000 people cross at once during rush hour. Starbucks and Shibuya Sky for aerial views. Hachiko statue nearby.",
    "port": "tokyo"
  },

  "senso-ji-temple": {
    "id": "senso-ji-temple",
    "name": "Senso-ji Temple",
    "aliases": ["Asakusa temple", "Senso-ji"],
    "lat": 35.7148,
    "lon": 139.7967,
    "type": "landmark",
    "geometry": "polygon",
    "notes": "Tokyo's oldest and most famous temple. Thunder Gate (Kaminarimon), Nakamise shopping street, pagoda. Free entry. Visit early morning or evening to avoid crowds.",
    "port": "tokyo"
  },

  "meiji-shrine": {
    "id": "meiji-shrine",
    "name": "Meiji Shrine",
    "aliases": ["Meiji Jingu", "Harajuku shrine"],
    "lat": 35.6764,
    "lon": 139.6993,
    "type": "landmark",
    "geometry": "polygon",
    "notes": "Serene Shinto shrine in forested park near Harajuku. Dedicated to Emperor Meiji. 70-hectare forest feels worlds away from city. Free entry.",
    "port": "tokyo"
  },

  "tokyo-skytree": {
    "id": "tokyo-skytree",
    "name": "Tokyo Skytree",
    "aliases": ["Skytree", "observation tower"],
    "lat": 35.7101,
    "lon": 139.8107,
    "type": "landmark",
    "geometry": "point",
    "notes": "World's tallest tower (634m). Two observation decks at 350m and 450m. Clear days show Mt. Fuji. Evening views spectacular. Shopping mall below.",
    "port": "tokyo"
  },

  "harajuku": {
    "id": "harajuku",
    "name": "Harajuku",
    "aliases": ["Takeshita Street", "youth fashion"],
    "lat": 35.6702,
    "lon": 139.7026,
    "type": "district",
    "geometry": "polygon",
    "notes": "Tokyo's youth fashion capital. Takeshita Street for kawaii culture, cosplay shops, crepes. Adjacent to Meiji Shrine and Yoyogi Park.",
    "port": "tokyo"
  },

  "akihabara": {
    "id": "akihabara",
    "name": "Akihabara",
    "aliases": ["Electric Town", "anime district"],
    "lat": 35.6984,
    "lon": 139.7731,
    "type": "district",
    "geometry": "polygon",
    "notes": "Electronics and anime mecca. Multi-story arcades, manga shops, maid cafes. Overwhelming sensory experience. Otaku paradise.",
    "port": "tokyo"
  },

  "yokohama-chinatown": {
    "id": "yokohama-chinatown",
    "name": "Yokohama Chinatown",
    "aliases": ["Chukagai", "largest Chinatown"],
    "lat": 35.4425,
    "lon": 139.6456,
    "type": "district",
    "geometry": "polygon",
    "notes": "Japan's largest Chinatown with 500+ restaurants and shops. Excellent dim sum, soup dumplings. 10-minute walk from Osanbashi cruise terminal.",
    "port": "tokyo"
  },

  "cup-noodles-museum": {
    "id": "cup-noodles-museum",
    "name": "Cup Noodles Museum",
    "aliases": ["instant ramen museum", "Nissin museum"],
    "lat": 35.4556,
    "lon": 139.6369,
    "type": "museum",
    "geometry": "point",
    "notes": "Interactive museum celebrating instant noodles. Make your own custom Cup Noodles. Fun for all ages. In Yokohama's Minato Mirai district.",
    "port": "tokyo"
  },

  "hong-kong-cruise-terminal": {
    "id": "hong-kong-cruise-terminal",
    "name": "Kai Tak Cruise Terminal",
    "aliases": ["Kai Tak", "cruise port"],
    "lat": 22.3053,
    "lon": 114.2131,
    "type": "port",
    "geometry": "point",
    "notes": "Modern terminal on former airport runway. Free shuttle to MTR. Rooftop park with skyline views.",
    "port": "hong-kong"
  },

  "ocean-terminal-hk": {
    "id": "ocean-terminal-hk",
    "name": "Ocean Terminal",
    "aliases": ["Tsim Sha Tsui terminal", "Harbour City"],
    "lat": 22.2942,
    "lon": 114.1678,
    "type": "port",
    "geometry": "point",
    "notes": "Prime Kowloon location at Harbour City mall. Walk off ship to shopping and Star Ferry. Used by smaller ships.",
    "port": "hong-kong"
  },

  "victoria-peak": {
    "id": "victoria-peak",
    "name": "Victoria Peak",
    "aliases": ["The Peak", "Peak Tram"],
    "lat": 22.2759,
    "lon": 114.1455,
    "type": "landmark",
    "geometry": "point",
    "notes": "Hong Kong's most famous viewpoint. Peak Tram funicular (steep ride, often long queues) or bus 15 from Central. Sky Terrace 428 highest viewing platform. Spectacular day and night.",
    "port": "hong-kong"
  },

  "star-ferry": {
    "id": "star-ferry",
    "name": "Star Ferry",
    "aliases": ["harbour ferry", "star ferry pier"],
    "lat": 22.2932,
    "lon": 114.1686,
    "type": "transport",
    "geometry": "point",
    "notes": "Iconic green-and-white ferries crossing Victoria Harbour since 1888. HK$3 (cheapest sightseeing in HK). Tsim Sha Tsui to Central, 7 minutes.",
    "port": "hong-kong"
  },

  "tian-tan-buddha": {
    "id": "tian-tan-buddha",
    "name": "Tian Tan Buddha (Big Buddha)",
    "aliases": ["Big Buddha", "Ngong Ping"],
    "lat": 22.2540,
    "lon": 113.9050,
    "type": "landmark",
    "geometry": "point",
    "notes": "34m bronze Buddha on Lantau Island. 268 steps to summit. Ngong Ping 360 cable car (25 min, stunning views) or bus. Po Lin Monastery vegetarian lunch.",
    "port": "hong-kong"
  },

  "hong-kong-disneyland": {
    "id": "hong-kong-disneyland",
    "name": "Hong Kong Disneyland",
    "aliases": ["Disney HK", "Disneyland"],
    "lat": 22.3129,
    "lon": 114.0413,
    "type": "attraction",
    "geometry": "polygon",
    "notes": "Compact Disney park on Lantau Island. World of Frozen opened 2023. MTR Disneyland Resort Line from Sunny Bay.",
    "port": "hong-kong"
  },

  "temple-street-night-market": {
    "id": "temple-street-night-market",
    "name": "Temple Street Night Market",
    "aliases": ["Temple Street", "night market"],
    "lat": 22.3069,
    "lon": 114.1700,
    "type": "attraction",
    "geometry": "line",
    "notes": "Kowloon's famous night market. Electronics, clothes, fortune tellers. Street food stalls. Opens around 4pm, busiest after dark. MTR: Jordan.",
    "port": "hong-kong"
  },

  "man-mo-temple-hk": {
    "id": "man-mo-temple-hk",
    "name": "Man Mo Temple",
    "aliases": ["Man Mo", "Hollywood Road temple"],
    "lat": 22.2839,
    "lon": 114.1502,
    "type": "landmark",
    "geometry": "point",
    "notes": "Atmospheric 1847 temple on Hollywood Road. Giant incense coils hanging from ceiling. Dedicated to gods of literature and war. Free entry.",
    "port": "hong-kong"
  },

  "tim-ho-wan": {
    "id": "tim-ho-wan",
    "name": "Tim Ho Wan",
    "aliases": ["cheapest Michelin star", "dim sum"],
    "lat": 22.3167,
    "lon": 114.1700,
    "type": "dining",
    "geometry": "point",
    "notes": "World's cheapest Michelin-starred restaurant. Famous BBQ pork buns. Multiple locations. Expect queues. Original in Sham Shui Po.",
    "port": "hong-kong"
  },

  "symphony-of-lights": {
    "id": "symphony-of-lights",
    "name": "Symphony of Lights",
    "aliases": ["light show", "Victoria Harbour show"],
    "lat": 22.2932,
    "lon": 114.1744,
    "type": "attraction",
    "geometry": "line",
    "notes": "Nightly 8pm multimedia show across Victoria Harbour skyline. Best viewed from Tsim Sha Tsui promenade or Aqua Luna junk boat. Free from promenade.",
    "port": "hong-kong"
  },

  "ladies-market": {
    "id": "ladies-market",
    "name": "Ladies' Market",
    "aliases": ["Mong Kok market", "bargain shopping"],
    "lat": 22.3186,
    "lon": 114.1706,
    "type": "attraction",
    "geometry": "line",
    "notes": "Kilometre-long market in Mong Kok. Clothing, accessories, souvenirs, electronics. Bargaining expected. Most vendors speak English. MTR: Mong Kok.",
    "port": "hong-kong"
  },

  "shanghai-cruise-terminal": {
    "id": "shanghai-cruise-terminal",
    "name": "Shanghai Port International Cruise Terminal",
    "aliases": ["Baoshan terminal", "Wusongkou"],
    "lat": 31.3975,
    "lon": 121.4928,
    "type": "port",
    "geometry": "point",
    "notes": "Main cruise terminal in Baoshan district. 45-60 minutes from The Bund by taxi. Ship shuttles usually available.",
    "port": "shanghai"
  },

  "the-bund": {
    "id": "the-bund",
    "name": "The Bund",
    "aliases": ["Waitan", "waterfront promenade"],
    "lat": 31.2400,
    "lon": 121.4900,
    "type": "landmark",
    "geometry": "line",
    "notes": "Shanghai's iconic waterfront with Art Deco colonial buildings and Pudong skyline views. Best at sunrise or evening when buildings light up. 1.5km promenade.",
    "port": "shanghai"
  },

  "shanghai-tower": {
    "id": "shanghai-tower",
    "name": "Shanghai Tower",
    "aliases": ["world's second tallest", "observation deck"],
    "lat": 31.2356,
    "lon": 121.5006,
    "type": "landmark",
    "geometry": "point",
    "notes": "World's second tallest building (632m). 118th floor observation deck at 546m. Clear days see 50km. In Pudong financial district across from Bund.",
    "port": "shanghai"
  },

  "yu-garden": {
    "id": "yu-garden",
    "name": "Yu Garden",
    "aliases": ["Yuyuan", "classical garden"],
    "lat": 31.2272,
    "lon": 121.4922,
    "type": "attraction",
    "geometry": "polygon",
    "notes": "400-year-old classical Chinese garden. Pavilions, rockeries, dragon walls. Adjacent bazaar with tea houses, dumpling shops. Nine-turn bridge iconic photo spot.",
    "port": "shanghai"
  },

  "french-concession": {
    "id": "french-concession",
    "name": "French Concession",
    "aliases": ["Fuxing Road", "historic quarter"],
    "lat": 31.2153,
    "lon": 121.4500,
    "type": "district",
    "geometry": "polygon",
    "notes": "Tree-lined streets with 1920s architecture, boutiques, cafes. Former French colonial area. Great for walking, vintage shopping, brunch.",
    "port": "shanghai"
  },

  "nanjing-road": {
    "id": "nanjing-road",
    "name": "Nanjing Road",
    "aliases": ["Nanjing East Road", "pedestrian street"],
    "lat": 31.2352,
    "lon": 121.4760,
    "type": "district",
    "geometry": "line",
    "notes": "World's longest shopping street (5.5km). East section pedestrianized. Connects People's Square to The Bund. Neon signs, department stores, crowds.",
    "port": "shanghai"
  },

  "din-tai-fung-shanghai": {
    "id": "din-tai-fung-shanghai",
    "name": "Din Tai Fung",
    "aliases": ["xiaolongbao", "soup dumplings"],
    "lat": 31.2310,
    "lon": 121.4730,
    "type": "dining",
    "geometry": "point",
    "notes": "Taiwan's famous dumpling house. Xiaolongbao (soup dumplings) are legendary. Watch chefs through glass. Multiple Shanghai locations.",
    "port": "shanghai"
  },

  "propaganda-poster-art-centre": {
    "id": "propaganda-poster-art-centre",
    "name": "Propaganda Poster Art Centre",
    "aliases": ["propaganda museum", "poster museum"],
    "lat": 31.2067,
    "lon": 121.4433,
    "type": "museum",
    "geometry": "point",
    "notes": "Hidden basement museum with 5,000+ original Mao-era posters. Fascinating and chilling. Tricky to find in residential building. Worth the hunt.",
    "port": "shanghai"
  },

  "zhujiajiao-water-town": {
    "id": "zhujiajiao-water-town",
    "name": "Zhujiajiao Water Town",
    "aliases": ["Venice of Shanghai", "ancient water town"],
    "lat": 31.1108,
    "lon": 121.0558,
    "type": "attraction",
    "geometry": "polygon",
    "notes": "1,700-year-old water town 40km from Shanghai. Stone bridges, canals, traditional architecture. Gondola rides, local snacks. Popular day trip.",
    "port": "shanghai"
  },

  "bangkok-cruise-terminal": {
    "id": "bangkok-cruise-terminal",
    "name": "Laem Chabang Cruise Port",
    "aliases": ["Laem Chabang", "cruise terminal"],
    "lat": 13.0728,
    "lon": 100.8836,
    "type": "port",
    "geometry": "point",
    "notes": "Thailand's main cruise port. 90km (2-3 hours) from Bangkok. Ship excursions or private transfers to city. Alternative: shuttle to Pattaya.",
    "port": "bangkok"
  },

  "grand-palace-bangkok": {
    "id": "grand-palace-bangkok",
    "name": "Grand Palace",
    "aliases": ["Royal Palace", "Wat Phra Kaew"],
    "lat": 13.7500,
    "lon": 100.4914,
    "type": "landmark",
    "geometry": "polygon",
    "notes": "Thailand's most sacred site. Emerald Buddha, stunning architecture. Strict dress code (no shorts, shoulders covered). 500 baht entry. Go early to avoid crowds.",
    "port": "bangkok"
  },

  "wat-arun": {
    "id": "wat-arun",
    "name": "Wat Arun (Temple of Dawn)",
    "aliases": ["Temple of Dawn", "Wat Arun"],
    "lat": 13.7437,
    "lon": 100.4889,
    "type": "landmark",
    "geometry": "point",
    "notes": "Iconic riverside temple with 70m spire. Climb for river views. Best photographed from opposite bank at sunset. 100 baht entry.",
    "port": "bangkok"
  },

  "chatuchak-market": {
    "id": "chatuchak-market",
    "name": "Chatuchak Weekend Market",
    "aliases": ["JJ Market", "Chatuchak"],
    "lat": 13.7997,
    "lon": 100.5503,
    "type": "attraction",
    "geometry": "polygon",
    "notes": "World's largest weekend market. 15,000+ stalls, 27 sections. Everything from antiques to pets. Saturdays and Sundays only. Go early, stay hydrated.",
    "port": "bangkok"
  },

  "khao-san-road": {
    "id": "khao-san-road",
    "name": "Khao San Road",
    "aliases": ["backpacker street", "Khaosan"],
    "lat": 13.7589,
    "lon": 100.4972,
    "type": "district",
    "geometry": "line",
    "notes": "Famous backpacker hub. Street food, bars, massage parlors, souvenir stalls. Lively at night. Walking distance from Grand Palace area.",
    "port": "bangkok"
  },

  "floating-markets": {
    "id": "floating-markets",
    "name": "Damnoen Saduak Floating Market",
    "aliases": ["floating market", "Damnoen Saduak"],
    "lat": 13.5178,
    "lon": 99.9578,
    "type": "attraction",
    "geometry": "polygon",
    "notes": "Thailand's most famous floating market. Vendors in wooden boats. Touristy but photogenic. 100km from Bangkok. Go very early (6-9am) to beat crowds.",
    "port": "bangkok"
  },

  "rooftop-bar-bangkok": {
    "id": "rooftop-bar-bangkok",
    "name": "Sky Bar at Lebua",
    "aliases": ["Hangover bar", "State Tower"],
    "lat": 13.7211,
    "lon": 100.5147,
    "type": "dining",
    "geometry": "point",
    "notes": "Famous from 'The Hangover II'. 63rd floor open-air bar with panoramic views. Smart dress code. Expensive cocktails but unforgettable sunset views.",
    "port": "bangkok"
  },

  "jim-thompson-house": {
    "id": "jim-thompson-house",
    "name": "Jim Thompson House",
    "aliases": ["Thai silk museum", "Jim Thompson"],
    "lat": 13.7494,
    "lon": 100.5278,
    "type": "museum",
    "geometry": "point",
    "notes": "Beautiful traditional Thai houses with art collection. Story of American silk entrepreneur who mysteriously vanished. Excellent guided tours.",
    "port": "bangkok"
  },

  "bali-cruise-terminal": {
    "id": "bali-cruise-terminal",
    "name": "Benoa Cruise Terminal",
    "aliases": ["Benoa port", "Bali cruise port"],
    "lat": -8.7506,
    "lon": 115.2144,
    "type": "port",
    "geometry": "point",
    "notes": "Bali's cruise port on southern peninsula. 20 minutes to Seminyak, 90 minutes to Ubud. Ship excursions or private drivers (negotiate).",
    "port": "bali"
  },

  "uluwatu-temple": {
    "id": "uluwatu-temple",
    "name": "Uluwatu Temple",
    "aliases": ["Pura Luhur Uluwatu", "cliff temple"],
    "lat": -8.8297,
    "lon": 115.0850,
    "type": "landmark",
    "geometry": "point",
    "notes": "Dramatic cliff-top temple 70m above Indian Ocean. Kecak fire dance at sunset (6pm). Watch for cheeky monkeys. Sarong required (provided).",
    "port": "bali"
  },

  "ubud-monkey-forest": {
    "id": "ubud-monkey-forest",
    "name": "Sacred Monkey Forest Sanctuary",
    "aliases": ["Ubud Monkey Forest", "monkey forest"],
    "lat": -8.5186,
    "lon": 115.2589,
    "type": "attraction",
    "geometry": "polygon",
    "notes": "700+ Balinese long-tailed macaques in mossy temple forest. Atmospheric but monkeys can be grabby. Secure belongings. 80k IDR entry.",
    "port": "bali"
  },

  "tegallalang-rice-terraces": {
    "id": "tegallalang-rice-terraces",
    "name": "Tegallalang Rice Terraces",
    "aliases": ["rice terraces", "Tegallalang"],
    "lat": -8.4310,
    "lon": 115.2792,
    "type": "nature",
    "geometry": "polygon",
    "notes": "Instagram-famous terraced rice paddies north of Ubud. Swings, cafes, photo spots. Can be crowded. Go early morning. Small 'donations' requested.",
    "port": "bali"
  },

  "seminyak-beach": {
    "id": "seminyak-beach",
    "name": "Seminyak Beach",
    "aliases": ["Seminyak", "beach clubs"],
    "lat": -8.6914,
    "lon": 115.1567,
    "type": "beach",
    "geometry": "line",
    "notes": "Trendy beach with upscale beach clubs (Potato Head, Ku De Ta). Sunset drinks, surfing, trendy restaurants. More sophisticated than Kuta.",
    "port": "bali"
  },

  "tanah-lot": {
    "id": "tanah-lot",
    "name": "Tanah Lot Temple",
    "aliases": ["Tanah Lot", "sea temple"],
    "lat": -8.6211,
    "lon": 115.0867,
    "type": "landmark",
    "geometry": "point",
    "notes": "Iconic temple on ocean rock. Only accessible at low tide. Best at sunset. Very popular - arrive early. 60k IDR entry.",
    "port": "bali"
  },

  "jimbaran-bay": {
    "id": "jimbaran-bay",
    "name": "Jimbaran Bay",
    "aliases": ["Jimbaran seafood", "sunset beach"],
    "lat": -8.7903,
    "lon": 115.1619,
    "type": "dining",
    "geometry": "line",
    "notes": "Beach restaurants serving grilled seafood at sunset. Feet-in-sand dining. Choose your fish from display. Atmospheric but touristy. Near cruise port.",
    "port": "bali"
  },

  "ubud-center": {
    "id": "ubud-center",
    "name": "Ubud Town Center",
    "aliases": ["Ubud", "art village"],
    "lat": -8.5069,
    "lon": 115.2625,
    "type": "district",
    "geometry": "polygon",
    "notes": "Bali's cultural heart. Art galleries, craft markets, yoga studios, organic cafes. Royal Palace, Ubud Market. 90 minutes from cruise port.",
    "port": "bali"
  },

  "brisbane-cruise-terminal": {
    "id": "brisbane-cruise-terminal",
    "name": "Brisbane International Cruise Terminal",
    "aliases": ["Portside Wharf", "Hamilton"],
    "lat": -27.4369,
    "lon": 153.0631,
    "type": "port",
    "geometry": "point",
    "notes": "Modern terminal at Portside Wharf, Hamilton. Ferry and CityCat connections to CBD. Shops and restaurants at terminal.",
    "port": "brisbane"
  },

  "south-bank-brisbane": {
    "id": "south-bank-brisbane",
    "name": "South Bank Parklands",
    "aliases": ["South Bank", "Streets Beach"],
    "lat": -27.4797,
    "lon": 153.0222,
    "type": "attraction",
    "geometry": "polygon",
    "notes": "Inner-city beach and parklands on Brisbane River. Streets Beach (man-made lagoon), restaurants, weekend markets. Free entry. CityCat stop.",
    "port": "brisbane"
  },

  "lone-pine-koala": {
    "id": "lone-pine-koala",
    "name": "Lone Pine Koala Sanctuary",
    "aliases": ["Lone Pine", "koala cuddle"],
    "lat": -27.5344,
    "lon": 152.9689,
    "type": "attraction",
    "geometry": "polygon",
    "notes": "World's first and largest koala sanctuary. Cuddle a koala (extra fee, Queensland allows it), hand-feed kangaroos. 30 min by bus or scenic river cruise.",
    "port": "brisbane"
  },

  "story-bridge": {
    "id": "story-bridge",
    "name": "Story Bridge",
    "aliases": ["bridge climb", "Story Bridge Adventure Climb"],
    "lat": -27.4650,
    "lon": 153.0367,
    "type": "landmark",
    "geometry": "line",
    "notes": "Brisbane's iconic cantilever bridge. Adventure Climb to summit (like Sydney BridgeClimb but shorter queues). Twilight climbs popular. Howard Smith Wharves below.",
    "port": "brisbane"
  },

  "brisbane-cbd": {
    "id": "brisbane-cbd",
    "name": "Brisbane City Center",
    "aliases": ["CBD", "Queen Street Mall"],
    "lat": -27.4698,
    "lon": 153.0251,
    "type": "district",
    "geometry": "polygon",
    "notes": "Compact walkable CBD. Queen Street Mall for shopping. City Botanic Gardens, Treasury Casino, Eagle Street Pier dining. Very accessible.",
    "port": "brisbane"
  },

  "citycat-ferry": {
    "id": "citycat-ferry",
    "name": "CityCat Ferry",
    "aliases": ["CityCat", "river ferry"],
    "lat": -27.4698,
    "lon": 153.0251,
    "type": "transport",
    "geometry": "line",
    "notes": "Brisbane's river ferry network. Best cheap sightseeing - ride end to end ($5.80). Connects cruise terminal to South Bank, CBD. go card for discounts.",
    "port": "brisbane"
  },

  "howard-smith-wharves": {
    "id": "howard-smith-wharves",
    "name": "Howard Smith Wharves",
    "aliases": ["Howard Smith", "riverside dining"],
    "lat": -27.4628,
    "lon": 153.0383,
    "type": "dining",
    "geometry": "polygon",
    "notes": "Revitalized riverside precinct under Story Bridge. Craft breweries, restaurants, stunning views. Popular weekend spot. Walk from CBD.",
    "port": "brisbane"
  },

  "auckland-cruise-terminal": {
    "id": "auckland-cruise-terminal",
    "name": "Queens Wharf Cruise Terminal",
    "aliases": ["Queens Wharf", "Auckland cruise port"],
    "lat": -36.8426,
    "lon": 174.7648,
    "type": "port",
    "geometry": "point",
    "notes": "Downtown Auckland waterfront. Walk off into Viaduct Harbour and CBD. Princes Wharf has additional berths.",
    "port": "auckland"
  },

  "sky-tower-auckland": {
    "id": "sky-tower-auckland",
    "name": "Sky Tower",
    "aliases": ["Sky Tower", "SkyWalk", "SkyJump"],
    "lat": -36.8485,
    "lon": 174.7633,
    "type": "landmark",
    "geometry": "point",
    "notes": "Auckland's iconic 328m tower. Observation decks, revolving restaurant, SkyWalk (outside ledge) and SkyJump (192m controlled fall). 15-minute walk from terminal.",
    "port": "auckland"
  },

  "waiheke-island": {
    "id": "waiheke-island",
    "name": "Waiheke Island",
    "aliases": ["Waiheke", "wine island"],
    "lat": -36.8000,
    "lon": 175.0833,
    "type": "attraction",
    "geometry": "polygon",
    "notes": "Wine and olive-oil paradise 35-minute ferry from Auckland. Boutique vineyards, beaches, art galleries. Bike rentals and wine tours popular.",
    "port": "auckland"
  },

  "viaduct-harbour": {
    "id": "viaduct-harbour",
    "name": "Viaduct Harbour",
    "aliases": ["Viaduct", "waterfront dining"],
    "lat": -36.8431,
    "lon": 174.7594,
    "type": "district",
    "geometry": "polygon",
    "notes": "Upmarket marina and entertainment precinct. Restaurants, bars, superyachts. America's Cup history. Walk from cruise terminal.",
    "port": "auckland"
  },

  "auckland-art-gallery": {
    "id": "auckland-art-gallery",
    "name": "Auckland Art Gallery",
    "aliases": ["Toi o Tamaki", "art museum"],
    "lat": -36.8522,
    "lon": 174.7647,
    "type": "museum",
    "geometry": "point",
    "notes": "New Zealand's largest art institution. Maori and Pacific art, international collection. Free general admission. Beautiful heritage and modern buildings.",
    "port": "auckland"
  },

  "mount-eden": {
    "id": "mount-eden",
    "name": "Mount Eden (Maungawhau)",
    "aliases": ["Maungawhau", "volcanic cone"],
    "lat": -36.8768,
    "lon": 174.7645,
    "type": "nature",
    "geometry": "point",
    "notes": "Auckland's highest volcanic cone. 360-degree city views from summit. Sacred Maori site. Easy walk up, great for sunrise/sunset. Free.",
    "port": "auckland"
  },

  "bay-of-islands": {
    "id": "bay-of-islands",
    "name": "Bay of Islands",
    "aliases": ["Paihia", "Russell", "Hole in the Rock"],
    "lat": -35.2833,
    "lon": 174.1000,
    "type": "attraction",
    "geometry": "polygon",
    "notes": "Subtropical paradise 3 hours north. 144 islands, dolphins, Hole in the Rock cruise. Waitangi Treaty Grounds (NZ founding). Popular cruise call on its own.",
    "port": "auckland"
  },

  "south-pacific-bora-bora": {
    "id": "south-pacific-bora-bora",
    "name": "Bora Bora",
    "aliases": ["Bora Bora lagoon", "Mount Otemanu"],
    "lat": -16.5004,
    "lon": -151.7415,
    "type": "attraction",
    "geometry": "polygon",
    "notes": "Legendary turquoise lagoon with Mount Otemanu backdrop. Tender port - boats shuttle to Vaitape. Lagoon tours, snorkeling with rays and sharks, jet ski.",
    "port": "south-pacific"
  },

  "south-pacific-moorea": {
    "id": "south-pacific-moorea",
    "name": "Moorea",
    "aliases": ["Moorea Island", "Belvedere"],
    "lat": -17.5333,
    "lon": -149.8333,
    "type": "attraction",
    "geometry": "polygon",
    "notes": "Tahiti's dramatic sister island. Belvedere Lookout for volcanic peak views, pineapple fields, dolphin encounters. 30 min ferry from Papeete.",
    "port": "south-pacific"
  },

  "south-pacific-tahiti": {
    "id": "south-pacific-tahiti",
    "name": "Papeete, Tahiti",
    "aliases": ["Tahiti", "Papeete"],
    "lat": -17.5350,
    "lon": -149.5696,
    "type": "port",
    "geometry": "point",
    "notes": "French Polynesia's capital and cruise hub. Black-sand beaches, Marché de Papeete market, waterfalls. Gateway to outer islands.",
    "port": "south-pacific"
  },

  "south-pacific-fiji": {
    "id": "south-pacific-fiji",
    "name": "Fiji Islands",
    "aliases": ["Fiji", "Suva", "Lautoka"],
    "lat": -18.1416,
    "lon": 178.4419,
    "type": "attraction",
    "geometry": "polygon",
    "notes": "333 islands of legendary friendliness. Kava ceremonies, snorkeling, cloudbreak surfing. Cruise ports at Suva (capital) or Lautoka.",
    "port": "south-pacific"
  },

  "south-pacific-vanuatu": {
    "id": "south-pacific-vanuatu",
    "name": "Vanuatu",
    "aliases": ["Port Vila", "blue holes"],
    "lat": -17.7333,
    "lon": 168.3167,
    "type": "attraction",
    "geometry": "polygon",
    "notes": "Melanesian paradise. Blue holes (swimming in stunning mineral pools), active volcanoes, traditional villages. Port Vila main cruise stop.",
    "port": "south-pacific"
  },

  "south-pacific-noumea": {
    "id": "south-pacific-noumea",
    "name": "Nouméa, New Caledonia",
    "aliases": ["Noumea", "New Caledonia"],
    "lat": -22.2758,
    "lon": 166.4580,
    "type": "port",
    "geometry": "point",
    "notes": "French Pacific territory. Excellent croissants, protected UNESCO lagoon, Melanesian culture. Popular from Australia cruises. Anse Vata beach.",
    "port": "south-pacific"
  },

  "cozumel-puerta-maya": {
    "id": "cozumel-puerta-maya",
    "name": "Puerta Maya Cruise Terminal",
    "aliases": ["Puerta Maya", "cruise pier", "main pier"],
    "lat": 20.4431,
    "lon": -86.9861,
    "type": "port",
    "geometry": "point",
    "notes": "Large shopping and restaurant complex at pier. 2-3 miles south of downtown San Miguel. Taxis or 45-minute coastal walk to town.",
    "port": "cozumel"
  },

  "cozumel-punta-langosta": {
    "id": "cozumel-punta-langosta",
    "name": "Punta Langosta Cruise Terminal",
    "aliases": ["Punta Langosta", "downtown pier"],
    "lat": 20.5089,
    "lon": -86.9519,
    "type": "port",
    "geometry": "point",
    "notes": "Pier right in downtown San Miguel. Walk off and you're shopping. Limited availability - check your ship's assignment.",
    "port": "cozumel"
  },

  "san-miguel-cozumel": {
    "id": "san-miguel-cozumel",
    "name": "San Miguel Downtown",
    "aliases": ["downtown", "San Miguel", "town center"],
    "lat": 20.5100,
    "lon": -86.9492,
    "type": "district",
    "geometry": "polygon",
    "notes": "Main town center with shops, restaurants, and the central plaza. Mariachi music, taco stands, tequila tastings. Walkable from Punta Langosta.",
    "port": "cozumel"
  },

  "palancar-reef": {
    "id": "palancar-reef",
    "name": "Palancar Reef",
    "aliases": ["Palancar", "snorkeling", "diving"],
    "lat": 20.3167,
    "lon": -87.0333,
    "type": "nature",
    "geometry": "polygon",
    "notes": "World-famous dive site on Mesoamerican Barrier Reef. Coral canyons, swim-throughs, turtles, rays, nurse sharks. Visibility often exceeds 100 feet.",
    "port": "cozumel"
  },

  "paradise-beach-cozumel": {
    "id": "paradise-beach-cozumel",
    "name": "Paradise Beach",
    "aliases": ["Paradise Beach Club"],
    "lat": 20.4122,
    "lon": -86.9958,
    "type": "beach",
    "geometry": "point",
    "notes": "Great for families. Pool, water toys, jet skis. $50-80 packages include food and drinks. Shuttle from all cruise piers.",
    "port": "cozumel"
  },

  "mr-sanchos": {
    "id": "mr-sanchos",
    "name": "Mr. Sanchos Beach Club",
    "aliases": ["Mr Sanchos", "Sanchos"],
    "lat": 20.3819,
    "lon": -87.0042,
    "type": "beach",
    "geometry": "point",
    "notes": "All-inclusive beach club with unlimited food and drinks. Lively party atmosphere. Pool floats, water toys. Very popular - book ahead.",
    "port": "cozumel"
  },

  "nachi-cocom": {
    "id": "nachi-cocom",
    "name": "Nachi Cocom Beach Club",
    "aliases": ["Nachi Cocom"],
    "lat": 20.3689,
    "lon": -87.0092,
    "type": "beach",
    "geometry": "point",
    "notes": "Limits daily guests for quieter experience. Great for couples. All-inclusive option. More relaxed than Mr. Sanchos.",
    "port": "cozumel"
  },

  "el-cielo-cozumel": {
    "id": "el-cielo-cozumel",
    "name": "El Cielo Starfish Sandbar",
    "aliases": ["El Cielo", "starfish sandbar"],
    "lat": 20.3625,
    "lon": -87.0708,
    "type": "nature",
    "geometry": "polygon",
    "notes": "Knee-deep turquoise lagoon with dozens of orange starfish. Look but don't touch - oils harm them. Boat tour required. Unforgettable experience.",
    "port": "cozumel"
  },

  "san-gervasio": {
    "id": "san-gervasio",
    "name": "San Gervasio Mayan Ruins",
    "aliases": ["San Gervasio", "Mayan ruins", "Ixchel"],
    "lat": 20.4981,
    "lon": -86.8419,
    "type": "landmark",
    "geometry": "polygon",
    "notes": "Ancient Maya pilgrimage site dedicated to goddess Ixchel. Peaceful, uncrowded. Iguanas sunning on ancient stones. In island interior.",
    "port": "cozumel"
  },

  "cozumel-museum": {
    "id": "cozumel-museum",
    "name": "Cozumel Museum",
    "aliases": ["Museo de la Isla"],
    "lat": 20.5108,
    "lon": -86.9508,
    "type": "museum",
    "geometry": "point",
    "notes": "Excellent museum downtown covering Maya cosmology and island history. Good air-conditioned break from heat.",
    "port": "cozumel"
  },

  "nassau-cruise-port": {
    "id": "nassau-cruise-port",
    "name": "Prince George Wharf",
    "aliases": ["Nassau cruise terminal", "cruise port"],
    "lat": 25.0775,
    "lon": -77.3400,
    "type": "port",
    "geometry": "point",
    "notes": "Main cruise terminal in downtown Nassau. Walk directly into Bay Street shopping. Festival Place welcome center at pier.",
    "port": "nassau"
  },

  "bay-street-nassau": {
    "id": "bay-street-nassau",
    "name": "Bay Street",
    "aliases": ["Bay Street shopping", "downtown Nassau"],
    "lat": 25.0775,
    "lon": -77.3419,
    "type": "district",
    "geometry": "line",
    "notes": "Main shopping street with duty-free stores, straw market, restaurants. Walk directly from cruise pier. Colorful colonial architecture.",
    "port": "nassau"
  },

  "atlantis-paradise-island": {
    "id": "atlantis-paradise-island",
    "name": "Atlantis Paradise Island",
    "aliases": ["Atlantis", "Paradise Island", "waterpark"],
    "lat": 25.0858,
    "lon": -77.3167,
    "type": "attraction",
    "geometry": "polygon",
    "notes": "Massive resort with waterpark, aquarium, marine habitats. Day passes available ($170+). 15-minute taxi over bridge. Worth it for families.",
    "port": "nassau"
  },

  "cabbage-beach": {
    "id": "cabbage-beach",
    "name": "Cabbage Beach",
    "aliases": ["Paradise Island beach"],
    "lat": 25.0917,
    "lon": -77.3056,
    "type": "beach",
    "geometry": "line",
    "notes": "Beautiful public beach on Paradise Island. Chair rentals, vendors. Access via water taxi from Nassau or taxi over bridge.",
    "port": "nassau"
  },

  "junkanoo-beach": {
    "id": "junkanoo-beach",
    "name": "Junkanoo Beach",
    "aliases": ["Western Esplanade"],
    "lat": 25.0775,
    "lon": -77.3511,
    "type": "beach",
    "geometry": "line",
    "notes": "Closest beach to cruise port - 10 minute walk. Chair rentals, food vendors, water sports. Gets crowded on cruise days.",
    "port": "nassau"
  },

  "nassau-straw-market": {
    "id": "nassau-straw-market",
    "name": "Nassau Straw Market",
    "aliases": ["straw market", "souvenirs"],
    "lat": 25.0767,
    "lon": -77.3417,
    "type": "shopping",
    "geometry": "polygon",
    "notes": "Large market selling handwoven straw goods, souvenirs. Bargaining expected. Adjacent to Bay Street. Can be pushy - friendly 'no thanks' works.",
    "port": "nassau"
  },

  "queen-stairs": {
    "id": "queen-stairs",
    "name": "Queen's Staircase",
    "aliases": ["66 steps", "Fort Fincastle"],
    "lat": 25.0753,
    "lon": -77.3369,
    "type": "landmark",
    "geometry": "point",
    "notes": "66 steps carved by slaves in 1793. Leads to Fort Fincastle with city views. Free to visit. Shaded walk from downtown.",
    "port": "nassau"
  },

  "pirates-nassau": {
    "id": "pirates-nassau",
    "name": "Pirates of Nassau Museum",
    "aliases": ["pirates museum"],
    "lat": 25.0778,
    "lon": -77.3417,
    "type": "museum",
    "geometry": "point",
    "notes": "Interactive museum on Golden Age of Piracy. Blackbeard, Nassau's pirate history. Good for families. $15 entry, air-conditioned.",
    "port": "nassau"
  },

  "st-thomas-havensight": {
    "id": "st-thomas-havensight",
    "name": "Havensight Cruise Terminal",
    "aliases": ["Havensight", "main pier"],
    "lat": 18.3333,
    "lon": -64.9167,
    "type": "port",
    "geometry": "point",
    "notes": "Main cruise terminal with Havensight Mall. Taxi stand, duty-free shopping. 2 miles from Charlotte Amalie downtown.",
    "port": "st-thomas"
  },

  "crown-bay-st-thomas": {
    "id": "crown-bay-st-thomas",
    "name": "Crown Bay Cruise Terminal",
    "aliases": ["Crown Bay"],
    "lat": 18.3372,
    "lon": -64.9472,
    "type": "port",
    "geometry": "point",
    "notes": "Secondary cruise terminal west of Havensight. Smaller but closer to downtown Charlotte Amalie. Good shopping complex.",
    "port": "st-thomas"
  },

  "charlotte-amalie": {
    "id": "charlotte-amalie",
    "name": "Charlotte Amalie Downtown",
    "aliases": ["downtown", "Main Street"],
    "lat": 18.3417,
    "lon": -64.9333,
    "type": "district",
    "geometry": "polygon",
    "notes": "Historic Danish colonial town. Duty-free shopping paradise. Main Street, Back Street, and waterfront. 99 Steps. Historic Fort Christian.",
    "port": "st-thomas"
  },

  "magens-bay": {
    "id": "magens-bay",
    "name": "Magens Bay Beach",
    "aliases": ["Magens Bay"],
    "lat": 18.3694,
    "lon": -64.9333,
    "type": "beach",
    "geometry": "line",
    "notes": "Consistently ranked among world's best beaches. Heart-shaped bay with calm turquoise water. $5 entry. Chair/umbrella rentals. 20-min taxi from pier.",
    "port": "st-thomas"
  },

  "coki-beach": {
    "id": "coki-beach",
    "name": "Coki Beach",
    "aliases": ["Coki Point"],
    "lat": 18.3528,
    "lon": -64.8592,
    "type": "beach",
    "geometry": "point",
    "notes": "Best snorkeling on St. Thomas. Vibrant reef right off beach. Equipment rentals available. Gets crowded but worth it. Next to Coral World.",
    "port": "st-thomas"
  },

  "coral-world": {
    "id": "coral-world",
    "name": "Coral World Ocean Park",
    "aliases": ["Coral World", "marine park"],
    "lat": 18.3536,
    "lon": -64.8583,
    "type": "attraction",
    "geometry": "polygon",
    "notes": "Underwater observatory and marine park. Swim with sea lions, stingray encounters. Adjacent to Coki Beach. Family-friendly.",
    "port": "st-thomas"
  },

  "skyride-st-thomas": {
    "id": "skyride-st-thomas",
    "name": "St. Thomas Skyride (Paradise Point)",
    "aliases": ["Paradise Point", "tramway", "Skyride"],
    "lat": 18.3333,
    "lon": -64.9208,
    "type": "attraction",
    "geometry": "point",
    "notes": "Gondola ride to 700ft overlook. Stunning harbor views. Restaurant and bar at top. $25 roundtrip. Right at Havensight.",
    "port": "st-thomas"
  },

  "philipsburg-cruise-port": {
    "id": "philipsburg-cruise-port",
    "name": "Philipsburg Cruise Port",
    "aliases": ["cruise terminal", "Dr. A.C. Wathey Pier"],
    "lat": 18.0194,
    "lon": -63.0458,
    "type": "port",
    "geometry": "point",
    "notes": "Main cruise pier on Dutch side. Walk into Philipsburg or taxi to beaches. Water taxi to town center available.",
    "port": "st-maarten"
  },

  "philipsburg-downtown": {
    "id": "philipsburg-downtown",
    "name": "Philipsburg Downtown",
    "aliases": ["Front Street", "Dutch side"],
    "lat": 18.0261,
    "lon": -63.0453,
    "type": "district",
    "geometry": "polygon",
    "notes": "Historic Dutch capital. Front Street duty-free shopping, boardwalk, beach. Courthouse, Old Street. 15-minute walk from pier.",
    "port": "st-maarten"
  },

  "great-bay-beach": {
    "id": "great-bay-beach",
    "name": "Great Bay Beach",
    "aliases": ["Philipsburg beach"],
    "lat": 18.0244,
    "lon": -63.0500,
    "type": "beach",
    "geometry": "line",
    "notes": "Beach along Philipsburg boardwalk. Free, convenient. Restaurants and bars nearby. Calm water. Walking distance from pier.",
    "port": "st-maarten"
  },

  "maho-beach": {
    "id": "maho-beach",
    "name": "Maho Beach",
    "aliases": ["airplane beach", "plane spotting"],
    "lat": 18.0408,
    "lon": -63.1131,
    "type": "beach",
    "geometry": "point",
    "notes": "Famous for planes landing directly overhead (Princess Juliana Airport runway). Sunset Bar, flight schedule posted. Taxi from pier.",
    "port": "st-maarten"
  },

  "orient-bay": {
    "id": "orient-bay",
    "name": "Orient Beach",
    "aliases": ["Orient Bay", "French side beach"],
    "lat": 18.0772,
    "lon": -63.0167,
    "type": "beach",
    "geometry": "line",
    "notes": "Famous beach on French side. Multiple beach clubs, restaurants. Part clothing-optional. 30-min taxi. Quintessential St. Martin experience.",
    "port": "st-maarten"
  },

  "marigot-st-martin": {
    "id": "marigot-st-martin",
    "name": "Marigot",
    "aliases": ["French side capital"],
    "lat": 18.0681,
    "lon": -63.0847,
    "type": "district",
    "geometry": "polygon",
    "notes": "French capital. Open-air market (Wed/Sat), waterfront dining, Fort Louis views. French bakeries and bistros. 20-min taxi.",
    "port": "st-maarten"
  },

  "loterie-farm": {
    "id": "loterie-farm",
    "name": "Loterie Farm",
    "aliases": ["Loterie Farm", "zipline", "nature"],
    "lat": 18.0528,
    "lon": -63.0403,
    "type": "nature",
    "geometry": "polygon",
    "notes": "Hidden gem nature reserve with ziplines, hiking, pool bar, farm-to-table dining. Peaceful escape from beaches. On Pic Paradis.",
    "port": "st-maarten"
  },

  "georgetown-cruise-port": {
    "id": "georgetown-cruise-port",
    "name": "George Town Tender Pier",
    "aliases": ["cruise terminal", "tender pier"],
    "lat": 19.2942,
    "lon": -81.3833,
    "type": "port",
    "geometry": "point",
    "notes": "Tender port - ships anchor offshore. Tender to George Town waterfront. Walk into town or taxi to beaches. Can have waits on busy days.",
    "port": "grand-cayman"
  },

  "georgetown-downtown": {
    "id": "georgetown-downtown",
    "name": "George Town Downtown",
    "aliases": ["downtown", "Cardinal Avenue"],
    "lat": 19.2958,
    "lon": -81.3833,
    "type": "district",
    "geometry": "polygon",
    "notes": "Capital of Cayman Islands. Duty-free shopping, restaurants. Walk from tender pier. Cayman Islands National Museum.",
    "port": "grand-cayman"
  },

  "seven-mile-beach-cayman": {
    "id": "seven-mile-beach-cayman",
    "name": "Seven Mile Beach",
    "aliases": ["Seven Mile", "main beach"],
    "lat": 19.3333,
    "lon": -81.3917,
    "type": "beach",
    "geometry": "line",
    "notes": "Famous stretch of white sand. Actually 5.5 miles. Public access points, water sports, beach bars. Taxi or walk from George Town.",
    "port": "grand-cayman"
  },

  "stingray-city": {
    "id": "stingray-city",
    "name": "Stingray City",
    "aliases": ["Stingray City Sandbar"],
    "lat": 19.3789,
    "lon": -81.2958,
    "type": "attraction",
    "geometry": "polygon",
    "notes": "Iconic sandbar where you wade with friendly stingrays. One of Caribbean's top experiences. Book excursion. Waist-deep water.",
    "port": "grand-cayman"
  },

  "hell-grand-cayman": {
    "id": "hell-grand-cayman",
    "name": "Hell",
    "aliases": ["Hell", "black limestone"],
    "lat": 19.3667,
    "lon": -81.4000,
    "type": "landmark",
    "geometry": "point",
    "notes": "Unusual black limestone formations. Small viewing platform. Send postcard from Hell Post Office. Quick stop, kitschy but fun.",
    "port": "grand-cayman"
  },

  "cayman-turtle-centre": {
    "id": "cayman-turtle-centre",
    "name": "Cayman Turtle Centre",
    "aliases": ["turtle farm", "Turtle Centre"],
    "lat": 19.3583,
    "lon": -81.4028,
    "type": "attraction",
    "geometry": "polygon",
    "notes": "Marine park with sea turtles, snorkel lagoon, predator tank. Hold baby turtles. Controversial for conservation but popular.",
    "port": "grand-cayman"
  },

  "eden-rock": {
    "id": "eden-rock",
    "name": "Eden Rock",
    "aliases": ["Eden Rock diving", "Devil's Grotto"],
    "lat": 19.2958,
    "lon": -81.3861,
    "type": "nature",
    "geometry": "point",
    "notes": "Shore diving/snorkeling in George Town harbor. Caves, swim-throughs, tarpon, silversides. Walk from tender pier. Gear rental available.",
    "port": "grand-cayman"
  },

  "cococay-arrival-plaza": {
    "id": "cococay-arrival-plaza",
    "name": "CocoCay Arrival Plaza",
    "aliases": ["arrival", "tender pier"],
    "lat": 25.8125,
    "lon": -77.9514,
    "type": "port",
    "geometry": "point",
    "notes": "Royal Caribbean's private island in the Bahamas. Tender from ship. Complimentary beach areas plus add-on experiences.",
    "port": "cococay"
  },

  "thrill-waterpark": {
    "id": "thrill-waterpark",
    "name": "Thrill Waterpark",
    "aliases": ["waterpark", "Daredevil's Peak"],
    "lat": 25.8167,
    "lon": -77.9514,
    "type": "attraction",
    "geometry": "polygon",
    "notes": "Tallest waterslide in North America (Daredevil's Peak). Wave pool, lazy river, kid splash. Additional fee but worth it.",
    "port": "cococay"
  },

  "chill-island": {
    "id": "chill-island",
    "name": "Chill Island",
    "aliases": ["complimentary beach", "free area"],
    "lat": 25.8097,
    "lon": -77.9528,
    "type": "beach",
    "geometry": "polygon",
    "notes": "Complimentary beach area with loungers (first-come), hammocks, floating mats. Beautiful turquoise water. No extra charge.",
    "port": "cococay"
  },

  "coco-beach-club": {
    "id": "coco-beach-club",
    "name": "Coco Beach Club",
    "aliases": ["exclusive beach", "infinity pool"],
    "lat": 25.8139,
    "lon": -77.9556,
    "type": "attraction",
    "geometry": "polygon",
    "notes": "Premium exclusive beach with overwater cabanas, infinity pool, butler service. Stunning Bahamas beach. Additional fee.",
    "port": "cococay"
  },

  "oasis-lagoon": {
    "id": "oasis-lagoon",
    "name": "Oasis Lagoon",
    "aliases": ["largest freshwater pool", "swim-up bar"],
    "lat": 25.8139,
    "lon": -77.9500,
    "type": "attraction",
    "geometry": "polygon",
    "notes": "Caribbean's largest freshwater pool with swim-up bar. Complimentary. Loungers around pool. Great alternative to beach.",
    "port": "cococay"
  },

  "up-up-away-balloon": {
    "id": "up-up-away-balloon",
    "name": "Up, Up and Away Balloon",
    "aliases": ["helium balloon", "observation balloon"],
    "lat": 25.8153,
    "lon": -77.9500,
    "type": "attraction",
    "geometry": "point",
    "notes": "Tethered helium balloon rising 450 feet for panoramic views. Additional fee. Stunning photo opportunity of island and ship.",
    "port": "cococay"
  },

  "labadee-pier": {
    "id": "labadee-pier",
    "name": "Labadee Pier",
    "aliases": ["cruise pier", "arrival area"],
    "lat": 19.7819,
    "lon": -72.2417,
    "type": "port",
    "geometry": "point",
    "notes": "Royal Caribbean's private peninsula in Haiti. Ships dock directly (no tender). 260-acre paradise. Food and basic activities included.",
    "port": "labadee"
  },

  "labadee-dragon-coaster": {
    "id": "labadee-dragon-coaster",
    "name": "Dragon's Breath Flight Line",
    "aliases": ["zipline", "longest zipline"],
    "lat": 19.7861,
    "lon": -72.2458,
    "type": "attraction",
    "geometry": "line",
    "notes": "One of world's longest over-water ziplines. 2,600 feet from mountain to beach. Thrilling Caribbean views. Additional fee.",
    "port": "labadee"
  },

  "adrenaline-beach": {
    "id": "adrenaline-beach",
    "name": "Adrenaline Beach",
    "aliases": ["water sports beach"],
    "lat": 19.7833,
    "lon": -72.2389,
    "type": "beach",
    "geometry": "line",
    "notes": "Action beach with jet skis, parasailing, kayaks. Additional fees for motorized sports. Complimentary loungers and beach.",
    "port": "labadee"
  },

  "barefoot-beach": {
    "id": "barefoot-beach",
    "name": "Barefoot Beach",
    "aliases": ["quiet beach", "family beach"],
    "lat": 19.7847,
    "lon": -72.2444,
    "type": "beach",
    "geometry": "line",
    "notes": "Quieter family beach area. Complimentary loungers, hammocks. Calmer water for swimming. Food service available.",
    "port": "labadee"
  },

  "dragon-tail-coaster": {
    "id": "dragon-tail-coaster",
    "name": "Dragon's Tail Coaster",
    "aliases": ["alpine coaster", "roller coaster"],
    "lat": 19.7861,
    "lon": -72.2472,
    "type": "attraction",
    "geometry": "line",
    "notes": "Caribbean's first alpine coaster. Gravity-powered sled down mountain track. Control your speed. Additional fee.",
    "port": "labadee"
  },

  "labadee-artisan-market": {
    "id": "labadee-artisan-market",
    "name": "Artisan Market",
    "aliases": ["shopping", "local crafts"],
    "lat": 19.7833,
    "lon": -72.2417,
    "type": "shopping",
    "geometry": "polygon",
    "notes": "Local Haitian crafts, paintings, woodwork. Bargaining expected. Supports local artisans. Near arrival area.",
    "port": "labadee"
  },

  "falmouth-cruise-port": {
    "id": "falmouth-cruise-port",
    "name": "Falmouth Cruise Port",
    "aliases": ["cruise terminal", "Historic Falmouth"],
    "lat": 18.4928,
    "lon": -77.6553,
    "type": "port",
    "geometry": "point",
    "notes": "Purpose-built cruise port with restored Georgian architecture. Walk into Historic Falmouth town. Near Dunn's River Falls.",
    "port": "jamaica"
  },

  "dunns-river-falls": {
    "id": "dunns-river-falls",
    "name": "Dunn's River Falls",
    "aliases": ["Dunn's River", "waterfall climb"],
    "lat": 18.4111,
    "lon": -77.1369,
    "type": "nature",
    "geometry": "point",
    "notes": "Iconic 600-foot waterfall you climb hand-in-hand. Jamaica's #1 attraction. 1-hour taxi from Falmouth. Book early - very popular.",
    "port": "jamaica"
  },

  "mystic-mountain": {
    "id": "mystic-mountain",
    "name": "Mystic Mountain",
    "aliases": ["Rainforest Bobsled", "zipline"],
    "lat": 18.4083,
    "lon": -77.1333,
    "type": "attraction",
    "geometry": "polygon",
    "notes": "Rainforest adventure park near Ocho Rios. Sky Explorer, Bobsled ride, zipline. Amazing views. Can combine with Dunn's River.",
    "port": "jamaica"
  },

  "ocho-rios-town": {
    "id": "ocho-rios-town",
    "name": "Ocho Rios Town",
    "aliases": ["Ochi", "Ocho Rios"],
    "lat": 18.4089,
    "lon": -77.1053,
    "type": "district",
    "geometry": "polygon",
    "notes": "Bustling town center. Island Village shopping, Craft Market, jerk centers. Main tourist hub on north coast. 1-hour taxi from Falmouth.",
    "port": "jamaica"
  },

  "blue-hole-jamaica": {
    "id": "blue-hole-jamaica",
    "name": "Blue Hole",
    "aliases": ["Secret Falls", "Cool Blue Hole"],
    "lat": 18.4089,
    "lon": -77.1347,
    "type": "nature",
    "geometry": "point",
    "notes": "Natural swimming hole with waterfall jumping. Less crowded alternative to Dunn's River. Local guides helpful. Amazing photos.",
    "port": "jamaica"
  },

  "montego-bay-hip-strip": {
    "id": "montego-bay-hip-strip",
    "name": "Hip Strip (Gloucester Avenue)",
    "aliases": ["Hip Strip", "Montego Bay downtown"],
    "lat": 18.4833,
    "lon": -77.9167,
    "type": "district",
    "geometry": "line",
    "notes": "Main tourist strip in Montego Bay. Shops, restaurants, bars, Doctor's Cave Beach. Some ships dock here instead of Falmouth.",
    "port": "jamaica"
  },