{
  "_meta": {
    "version": "1.1.0",
    "description": "Global POI index for port maps. POIs are referenced by ID in per-port manifests.",
    "updated": "2025-12-12",
    "schema": "/schema/poi-index.schema.json",
    "counts": {
      "aruba": 33,
      "anchorage": 21,
      "juneau": 17
    }
  },

  "aruba-cruise-terminal": {
    "id": "aruba-cruise-terminal",
    "name": "Aruba Cruise Terminal",
    "aliases": ["cruise port", "cruise terminal", "cruise facility"],
    "lat": 12.5186,
    "lon": -70.0358,
    "type": "port",
    "geometry": "point",
    "port": "aruba"
  },

  "eagle-beach": {
    "id": "eagle-beach",
    "name": "Eagle Beach",
    "aliases": ["Eagle beach", "eagle beach aruba", "fofoti trees"],
    "lat": 12.5512,
    "lon": -70.0567,
    "type": "beach",
    "geometry": "line",
    "notes": "Famous for bent fofoti/divi-divi trees. Consistently ranked top 3 beaches worldwide.",
    "port": "aruba"
  },

  "palm-beach": {
    "id": "palm-beach",
    "name": "Palm Beach",
    "aliases": ["Palm beach aruba", "high-rise beach"],
    "lat": 12.5756,
    "lon": -70.0567,
    "type": "beach",
    "geometry": "line",
    "notes": "High-rise hotel strip with beach bars and water sports.",
    "port": "aruba"
  },

  "baby-beach": {
    "id": "baby-beach",
    "name": "Baby Beach",
    "aliases": ["Baby beach aruba", "baby beach snorkeling"],
    "lat": 12.4225,
    "lon": -69.8672,
    "type": "beach",
    "geometry": "polygon",
    "notes": "Protected lagoon at Aruba's southern tip. Best shore snorkeling on the island.",
    "port": "aruba"
  },

  "surfside-beach": {
    "id": "surfside-beach",
    "name": "Surfside Beach",
    "aliases": ["Surfside beach aruba"],
    "lat": 12.5089,
    "lon": -70.0294,
    "type": "beach",
    "geometry": "point",
    "notes": "Closest beach to cruise port - 15 minute walk.",
    "port": "aruba"
  },

  "governors-bay-beach": {
    "id": "governors-bay-beach",
    "name": "Governor's Bay Beach",
    "aliases": ["Governor's Bay", "Governors Bay"],
    "lat": 12.5225,
    "lon": -70.0375,
    "type": "beach",
    "geometry": "point",
    "notes": "Walkable from port via Wilhelmina Park bridge. Quiet cove with calm water.",
    "port": "aruba"
  },

  "arashi-beach": {
    "id": "arashi-beach",
    "name": "Arashi Beach",
    "aliases": ["Arashi beach aruba"],
    "lat": 12.6111,
    "lon": -70.0536,
    "type": "beach",
    "geometry": "line",
    "notes": "Northwest tip near California Lighthouse. Public palapas, uncrowded.",
    "port": "aruba"
  },

  "california-lighthouse": {
    "id": "california-lighthouse",
    "name": "California Lighthouse",
    "aliases": ["California lighthouse aruba", "lighthouse"],
    "lat": 12.6139,
    "lon": -70.0508,
    "type": "landmark",
    "geometry": "point",
    "notes": "Northwest tip of island. Popular sunset spot.",
    "port": "aruba"
  },

  "natural-bridge": {
    "id": "natural-bridge",
    "name": "Natural Bridge",
    "aliases": ["natural bridge aruba", "limestone arch"],
    "lat": 12.5867,
    "lon": -69.9908,
    "type": "landmark",
    "geometry": "point",
    "notes": "Photogenic limestone arch, ~7 miles from port.",
    "port": "aruba"
  },

  "arikok-national-park": {
    "id": "arikok-national-park",
    "name": "Arikok National Park",
    "aliases": ["Arikok", "national park"],
    "lat": 12.4917,
    "lon": -69.9422,
    "type": "nature",
    "geometry": "polygon",
    "notes": "Rugged landscape, popular for jeep tours.",
    "port": "aruba"
  },

  "oranjestad-downtown": {
    "id": "oranjestad-downtown",
    "name": "Downtown Oranjestad",
    "aliases": ["Oranjestad", "downtown", "town center"],
    "lat": 12.5186,
    "lon": -70.0333,
    "type": "district",
    "geometry": "polygon",
    "notes": "Dutch colonial architecture, main shopping area.",
    "port": "aruba"
  },

  "caya-betico-croes": {
    "id": "caya-betico-croes",
    "name": "Caya G.F. Betico Croes",
    "aliases": ["main street", "pedestrian street", "shopping street"],
    "lat": 12.5197,
    "lon": -70.0322,
    "type": "district",
    "geometry": "line",
    "notes": "Pedestrian-friendly shaded shopping street.",
    "port": "aruba"
  },

  "renaissance-marketplace": {
    "id": "renaissance-marketplace",
    "name": "Renaissance Marketplace",
    "aliases": ["Renaissance Mall", "duty-free shopping"],
    "lat": 12.5178,
    "lon": -70.0347,
    "type": "shopping",
    "geometry": "point",
    "notes": "Major duty-free shopping destination.",
    "port": "aruba"
  },

  "renaissance-island": {
    "id": "renaissance-island",
    "name": "Renaissance Island",
    "aliases": ["flamingo beach", "Renaissance private island"],
    "lat": 12.5083,
    "lon": -70.0403,
    "type": "attraction",
    "geometry": "polygon",
    "notes": "Private island with flamingos. Day passes available but pricey.",
    "port": "aruba"
  },

  "archaeological-museum-aruba": {
    "id": "archaeological-museum-aruba",
    "name": "Archaeological Museum of Aruba",
    "aliases": ["Archaeological Museum", "museum"],
    "lat": 12.5200,
    "lon": -70.0342,
    "type": "museum",
    "geometry": "point",
    "notes": "0.3 miles from terminals. Free admission. Collections span 2500 BC to modern day.",
    "port": "aruba"
  },

  "butterfly-farm-aruba": {
    "id": "butterfly-farm-aruba",
    "name": "Butterfly Farm",
    "aliases": ["Butterfly Farm aruba"],
    "lat": 12.5564,
    "lon": -70.0508,
    "type": "attraction",
    "geometry": "point",
    "notes": "About 4 miles from port. Tropical garden with butterflies from around the world.",
    "port": "aruba"
  },

  "donkey-sanctuary-aruba": {
    "id": "donkey-sanctuary-aruba",
    "name": "Donkey Sanctuary",
    "aliases": ["Donkey Sanctuary aruba", "donkeys"],
    "lat": 12.5086,
    "lon": -69.9519,
    "type": "attraction",
    "geometry": "point",
    "notes": "Six miles from port. Rescue haven where you can feed friendly donkeys.",
    "port": "aruba"
  },

  "wilhelmina-park": {
    "id": "wilhelmina-park",
    "name": "Wilhelmina Park",
    "aliases": ["Wilhelmina Park aruba"],
    "lat": 12.5211,
    "lon": -70.0375,
    "type": "park",
    "geometry": "polygon",
    "notes": "Near Governor's Bay Beach. Bridge access.",
    "port": "aruba"
  },

  "linear-park-aruba": {
    "id": "linear-park-aruba",
    "name": "Linear Park",
    "aliases": ["Linear Park waterfront"],
    "lat": 12.5175,
    "lon": -70.0378,
    "type": "park",
    "geometry": "line",
    "notes": "Waterfront promenade with restaurants.",
    "port": "aruba"
  },

  "casibari-rock-formations": {
    "id": "casibari-rock-formations",
    "name": "Casibari Rock Formations",
    "aliases": ["Casibari", "rock formations"],
    "lat": 12.5211,
    "lon": -69.9831,
    "type": "landmark",
    "geometry": "point",
    "notes": "Unique boulder formations. Popular on taxi tours.",
    "port": "aruba"
  },

  "hooiberg": {
    "id": "hooiberg",
    "name": "Hooiberg",
    "aliases": ["Haystack Mountain", "Mount Hooiberg"],
    "lat": 12.5158,
    "lon": -69.9792,
    "type": "landmark",
    "geometry": "point",
    "notes": "Aruba's famous 541-foot mountain. 561 steps to the top. On clear days you can see Venezuela.",
    "port": "aruba"
  },

  "san-nicolas": {
    "id": "san-nicolas",
    "name": "San Nicolas",
    "aliases": ["San Nicolas aruba", "Sunrise City"],
    "lat": 12.4372,
    "lon": -69.8875,
    "type": "district",
    "geometry": "polygon",
    "notes": "Aruba's cultural capital. 80+ street art murals by local and international artists. Former oil refinery town.",
    "port": "aruba"
  },

  "alto-vista-chapel": {
    "id": "alto-vista-chapel",
    "name": "Alto Vista Chapel",
    "aliases": ["Alto Vista", "Pilgrims Church"],
    "lat": 12.5925,
    "lon": -70.0311,
    "type": "landmark",
    "geometry": "point",
    "notes": "Historic yellow chapel on a hill. First Catholic church site in Aruba (1750). Popular for weddings and quiet reflection.",
    "port": "aruba"
  },

  "bushiribana-gold-mill": {
    "id": "bushiribana-gold-mill",
    "name": "Bushiribana Gold Mill Ruins",
    "aliases": ["Bushiribana", "gold mill ruins", "gold mill"],
    "lat": 12.5639,
    "lon": -69.9750,
    "type": "landmark",
    "geometry": "point",
    "notes": "Picturesque ruins of 19th-century gold smelter on north coast. Popular photo spot.",
    "port": "aruba"
  },

  "ayo-rock-formations": {
    "id": "ayo-rock-formations",
    "name": "Ayo Rock Formations",
    "aliases": ["Ayo", "Ayo rocks"],
    "lat": 12.5283,
    "lon": -69.9622,
    "type": "landmark",
    "geometry": "point",
    "notes": "Giant diorite boulders with ancient Arawak petroglyphs. More secluded than Casibari.",
    "port": "aruba"
  },

  "baby-natural-bridge": {
    "id": "baby-natural-bridge",
    "name": "Baby Natural Bridge",
    "aliases": ["baby bridge", "small natural bridge"],
    "lat": 12.5847,
    "lon": -69.9861,
    "type": "landmark",
    "geometry": "point",
    "notes": "Smaller but intact natural bridge near the collapsed main Natural Bridge.",
    "port": "aruba"
  },

  "malmok-beach": {
    "id": "malmok-beach",
    "name": "Malmok Beach",
    "aliases": ["Malmok", "Malmok aruba"],
    "lat": 12.5975,
    "lon": -70.0536,
    "type": "beach",
    "geometry": "line",
    "notes": "Popular snorkeling spot on northwest coast. Rocky entry but excellent marine life.",
    "port": "aruba"
  },

  "fishermans-huts": {
    "id": "fishermans-huts",
    "name": "Fisherman's Huts",
    "aliases": ["Fisherman's Huts aruba", "Hadicurari Beach"],
    "lat": 12.5881,
    "lon": -70.0572,
    "type": "beach",
    "geometry": "point",
    "notes": "World-class windsurfing and kiteboarding spot. Steady trade winds and shallow water.",
    "port": "aruba"
  },

  "depalm-island": {
    "id": "depalm-island",
    "name": "De Palm Island",
    "aliases": ["DePalm Island", "De Palm"],
    "lat": 12.4889,
    "lon": -70.0111,
    "type": "attraction",
    "geometry": "polygon",
    "notes": "All-inclusive island resort with waterpark, snorkel, SNUBA. Ferry from downtown. Family-friendly.",
    "port": "aruba"
  },

  "philips-animal-garden": {
    "id": "philips-animal-garden",
    "name": "Philip's Animal Garden",
    "aliases": ["Philips Animal Garden", "animal garden"],
    "lat": 12.5536,
    "lon": -69.9600,
    "type": "attraction",
    "geometry": "point",
    "notes": "Exotic animal sanctuary. Interactive experience with monkeys, kangaroos, and more. Great for families.",
    "port": "aruba"
  },

  "ostrich-farm-aruba": {
    "id": "ostrich-farm-aruba",
    "name": "Aruba Ostrich Farm",
    "aliases": ["Ostrich Farm", "ostrich farm"],
    "lat": 12.5300,
    "lon": -69.9400,
    "type": "attraction",
    "geometry": "point",
    "notes": "Feed and interact with ostriches, emus, and other exotic birds. Educational tours.",
    "port": "aruba"
  },

  "aruba-aloe-factory": {
    "id": "aruba-aloe-factory",
    "name": "Aruba Aloe Factory & Museum",
    "aliases": ["Aloe Vera Factory", "aloe factory", "Aruba Aloe"],
    "lat": 12.5239,
    "lon": -70.0175,
    "type": "attraction",
    "geometry": "point",
    "notes": "One of world's oldest aloe operations (since 1890). Free tours show production process. Gift shop.",
    "port": "aruba"
  },

  "anchorage-downtown": {
    "id": "anchorage-downtown",
    "name": "Downtown Anchorage",
    "aliases": ["downtown", "city center"],
    "lat": 61.2176,
    "lon": -149.8997,
    "type": "district",
    "geometry": "polygon",
    "notes": "Walkable downtown with shops, restaurants, and museums. Drop-off point for cruise transfers.",
    "port": "anchorage"
  },

  "ted-stevens-airport": {
    "id": "ted-stevens-airport",
    "name": "Ted Stevens International Airport",
    "aliases": ["ANC", "Anchorage Airport", "airport"],
    "lat": 61.1743,
    "lon": -149.9963,
    "type": "transport",
    "geometry": "point",
    "notes": "Major Alaska hub. Drop-off point for cruise transfers from Seward/Whittier.",
    "port": "anchorage"
  },

  "alaska-wildlife-conservation-center": {
    "id": "alaska-wildlife-conservation-center",
    "name": "Alaska Wildlife Conservation Center",
    "aliases": ["AWCC", "Wildlife Center", "wildlife sanctuary"],
    "lat": 60.8225,
    "lon": -148.9881,
    "type": "attraction",
    "geometry": "polygon",
    "notes": "Top-rated sanctuary with guaranteed bear, moose, musk ox, caribou, and eagle sightings. 30 min south on Seward Highway. Viator Experience Award winner.",
    "port": "anchorage"
  },

  "tony-knowles-coastal-trail": {
    "id": "tony-knowles-coastal-trail",
    "name": "Tony Knowles Coastal Trail",
    "aliases": ["Coastal Trail", "bike trail"],
    "lat": 61.2156,
    "lon": -149.9156,
    "type": "nature",
    "geometry": "line",
    "notes": "11-mile paved trail from downtown along Cook Inlet. Biking, walking, wildlife viewing. Moose frequently spotted.",
    "port": "anchorage"
  },

  "anchorage-museum": {
    "id": "anchorage-museum",
    "name": "Anchorage Museum",
    "aliases": ["museum", "Rasmuson Center"],
    "lat": 61.2164,
    "lon": -149.8858,
    "type": "museum",
    "geometry": "point",
    "notes": "World-class exhibits on Alaska Native cultures, Arctic ecology, and northern history. Smithsonian Arctic Studies Center inside. Rooftop garden with mountain views.",
    "port": "anchorage"
  },

  "alaska-native-heritage-center": {
    "id": "alaska-native-heritage-center",
    "name": "Alaska Native Heritage Center",
    "aliases": ["Heritage Center", "Native culture"],
    "lat": 61.2328,
    "lon": -149.7178,
    "type": "museum",
    "geometry": "polygon",
    "notes": "Living history with traditional dwellings from all Alaska Native groups. Dance performances, artisan demonstrations, cultural programs.",
    "port": "anchorage"
  },

  "flattop-mountain": {
    "id": "flattop-mountain",
    "name": "Flattop Mountain",
    "aliases": ["Flattop", "hiking"],
    "lat": 61.1039,
    "lon": -149.6833,
    "type": "nature",
    "geometry": "point",
    "notes": "Alaska's most-climbed peak. Moderate 3.5-mile round trip hike with panoramic views of Anchorage, Cook Inlet, and Denali on clear days.",
    "port": "anchorage"
  },

  "lake-hood": {
    "id": "lake-hood",
    "name": "Lake Hood Seaplane Base",
    "aliases": ["Lake Hood", "floatplane base", "seaplane"],
    "lat": 61.1800,
    "lon": -149.9650,
    "type": "landmark",
    "geometry": "polygon",
    "notes": "World's largest and busiest floatplane base. Watch takeoffs and landings. Starting point for flightseeing tours.",
    "port": "anchorage"
  },

  "earthquake-park": {
    "id": "earthquake-park",
    "name": "Earthquake Park",
    "aliases": ["1964 earthquake"],
    "lat": 61.2019,
    "lon": -149.9833,
    "type": "park",
    "geometry": "polygon",
    "notes": "Commemorates the devastating 1964 Good Friday Earthquake (9.2 magnitude). Interpretive signs explain the destruction. Great views of Cook Inlet.",
    "port": "anchorage"
  },

  "portage-glacier": {
    "id": "portage-glacier",
    "name": "Portage Glacier",
    "aliases": ["Portage", "glacier"],
    "lat": 60.7589,
    "lon": -148.8247,
    "type": "nature",
    "geometry": "polygon",
    "notes": "Accessible glacier 1 hour south. Boat tours to the ice face available in summer. Combine with Wildlife Conservation Center for a full day.",
    "port": "anchorage"
  },

  "matanuska-glacier": {
    "id": "matanuska-glacier",
    "name": "Matanuska Glacier",
    "aliases": ["Mat Glacier", "glacier walk"],
    "lat": 61.7667,
    "lon": -147.7500,
    "type": "nature",
    "geometry": "polygon",
    "notes": "Alaska's largest road-accessible glacier, 2 hours northeast. Guided ice walks explore crevasses and blue ice pools. Top-rated Viator tours.",
    "port": "anchorage"
  },

  "girdwood-alyeska": {
    "id": "girdwood-alyeska",
    "name": "Girdwood & Alyeska Resort",
    "aliases": ["Girdwood", "Alyeska", "ski resort"],
    "lat": 60.9683,
    "lon": -149.0981,
    "type": "attraction",
    "geometry": "polygon",
    "notes": "Mountain resort town 40 min south. Summer tram rides to 2,300 ft for panoramic views. Excellent hiking. Double Musky Inn for dinner.",
    "port": "anchorage"
  },

  "alaska-railroad-depot-anchorage": {
    "id": "alaska-railroad-depot-anchorage",
    "name": "Alaska Railroad Depot",
    "aliases": ["train station", "railroad"],
    "lat": 61.2208,
    "lon": -149.8861,
    "type": "transport",
    "geometry": "point",
    "notes": "Historic depot for scenic rail journeys to Seward, Whittier, Talkeetna, and Denali. GoldStar glass-domed cars recommended.",
    "port": "anchorage"
  },

  "kincaid-park": {
    "id": "kincaid-park",
    "name": "Kincaid Park",
    "aliases": ["Kincaid"],
    "lat": 61.1556,
    "lon": -150.0583,
    "type": "park",
    "geometry": "polygon",
    "notes": "1,400-acre park with 20+ miles of trails for hiking and biking. Cross-country skiing in winter. Moose and wildlife viewing.",
    "port": "anchorage"
  },

  "snow-city-cafe": {
    "id": "snow-city-cafe",
    "name": "Snow City Cafe",
    "aliases": ["Snow City", "breakfast"],
    "lat": 61.2169,
    "lon": -149.8869,
    "type": "dining",
    "geometry": "point",
    "notes": "Legendary breakfast spot — voted best breakfast in Anchorage for years. Reindeer sausage scramble, sourdough pancakes. Expect lines.",
    "port": "anchorage"
  },

  "mooses-tooth": {
    "id": "mooses-tooth",
    "name": "Moose's Tooth Pub & Pizzeria",
    "aliases": ["Moose's Tooth", "pizza"],
    "lat": 61.1903,
    "lon": -149.8689,
    "type": "dining",
    "geometry": "point",
    "notes": "Iconic Anchorage pizzeria. Named among America's best by Food Network. Try the Avalanche or Apricot Chicken pizza. 40+ local beers on tap.",
    "port": "anchorage"
  },

  "simon-and-seaforts": {
    "id": "simon-and-seaforts",
    "name": "Simon & Seafort's",
    "aliases": ["Simon's", "seafood"],
    "lat": 61.2189,
    "lon": -149.8942,
    "type": "dining",
    "geometry": "point",
    "notes": "Upscale landmark since 1978. Voted best seafood in Alaska. Sweeping Cook Inlet views. King crab, crab-stuffed halibut. Reservations recommended.",
    "port": "anchorage"
  },

  "humpys-alehouse": {
    "id": "humpys-alehouse",
    "name": "Humpy's Great Alaskan Alehouse",
    "aliases": ["Humpy's", "alehouse"],
    "lat": 61.2175,
    "lon": -149.8883,
    "type": "dining",
    "geometry": "point",
    "notes": "Downtown institution with halibut tacos and 50+ beers. Lively atmosphere. Good for groups.",
    "port": "anchorage"
  },

  "fire-island-bakeshop": {
    "id": "fire-island-bakeshop",
    "name": "Fire Island Rustic Bakeshop",
    "aliases": ["Fire Island", "bakery", "coffee"],
    "lat": 61.1931,
    "lon": -149.8836,
    "type": "dining",
    "geometry": "point",
    "notes": "Best coffee and pastries in town. Artisan bread shipped statewide. Perfect pre-adventure fuel.",
    "port": "anchorage"
  },

  "resolution-park": {
    "id": "resolution-park",
    "name": "Resolution Park & Captain Cook Monument",
    "aliases": ["Captain Cook statue", "Resolution Park"],
    "lat": 61.2192,
    "lon": -149.9014,
    "type": "landmark",
    "geometry": "point",
    "notes": "Downtown park with Captain Cook statue and panoramic views of Cook Inlet, Sleeping Lady (Mt. Susitna), and the Alaska Range.",
    "port": "anchorage"
  },

  "ship-creek": {
    "id": "ship-creek",
    "name": "Ship Creek",
    "aliases": ["salmon fishing", "urban fishing"],
    "lat": 61.2258,
    "lon": -149.8831,
    "type": "nature",
    "geometry": "line",
    "notes": "Urban salmon fishing in downtown Anchorage. King salmon (June), silver salmon (August-September). Fishing licenses required.",
    "port": "anchorage"
  },

  "juneau-cruise-terminal": {
    "id": "juneau-cruise-terminal",
    "name": "Juneau Cruise Terminal",
    "aliases": ["AJ Dock", "Franklin Dock", "cruise port"],
    "lat": 58.2994,
    "lon": -134.4081,
    "type": "port",
    "geometry": "point",
    "notes": "Direct dock in downtown Juneau. Walk off ship into the heart of the city in under 5 minutes.",
    "port": "juneau"
  },

  "mendenhall-glacier": {
    "id": "mendenhall-glacier",
    "name": "Mendenhall Glacier & Visitor Center",
    "aliases": ["Mendenhall", "glacier visitor center"],
    "lat": 58.4197,
    "lon": -134.5461,
    "type": "nature",
    "geometry": "polygon",
    "notes": "Alaska's only drive-up glacier. 13 miles from downtown, 13.6 miles long. World-class visitor center with exhibits, rangers, and stunning glacier views. Top-rated Juneau attraction.",
    "port": "juneau"
  },

  "nugget-falls": {
    "id": "nugget-falls",
    "name": "Nugget Falls",
    "aliases": ["Nugget Falls Trail", "waterfall"],
    "lat": 58.4208,
    "lon": -134.5314,
    "type": "nature",
    "geometry": "point",
    "notes": "Spectacular 377-foot waterfall with glacier backdrop. Easy 30-45 minute trail from Mendenhall Visitor Center. Can walk right up to the misty base.",
    "port": "juneau"
  },

  "mount-roberts-tramway": {
    "id": "mount-roberts-tramway",
    "name": "Mount Roberts Tramway",
    "aliases": ["tramway", "Mount Roberts", "Goldbelt tram"],
    "lat": 58.2983,
    "lon": -134.4072,
    "type": "attraction",
    "geometry": "point",
    "notes": "6-minute ride to 1,800 ft for panoramic views of Juneau, Gastineau Channel, and cruise ships. Raptor center, hiking trails, Timberline Bar at top. Departs steps from cruise dock.",
    "port": "juneau"
  },

  "auke-bay-harbor": {
    "id": "auke-bay-harbor",
    "name": "Auke Bay Harbor",
    "aliases": ["Auke Bay", "whale watching harbor"],
    "lat": 58.3817,
    "lon": -134.6469,
    "type": "port",
    "geometry": "point",
    "notes": "Departure point for most whale watching tours. 65+ migrating humpbacks frequent these waters. 30 minutes from downtown.",
    "port": "juneau"
  },

  "alaska-state-museum": {
    "id": "alaska-state-museum",
    "name": "Alaska State Museum",
    "aliases": ["state museum", "heritage center"],
    "lat": 58.3008,
    "lon": -134.4100,
    "type": "museum",
    "geometry": "point",
    "notes": "World-class museum of Alaska Native Tlingit culture and state history. Part of new heritage center complex. Short walk from cruise dock.",
    "port": "juneau"
  },

  "downtown-juneau": {
    "id": "downtown-juneau",
    "name": "Downtown Juneau",
    "aliases": ["downtown", "city center", "Franklin Street"],
    "lat": 58.3019,
    "lon": -134.4197,
    "type": "district",
    "geometry": "polygon",
    "notes": "Walkable downtown with art galleries, jewelry shops, restaurants. Alaska's capital but no roads in or out — arrive by air or sea only.",
    "port": "juneau"
  },

  "tracys-crab-shack": {
    "id": "tracys-crab-shack",
    "name": "Tracy's King Crab Shack",
    "aliases": ["Tracy's", "crab shack", "king crab"],
    "lat": 58.2997,
    "lon": -134.4083,
    "type": "dining",
    "geometry": "point",
    "notes": "Legendary Juneau institution. Fresh king crab legs, famous crab bisque, crab cakes. ~$100/lb for king crab. Expect lines but worth it. Two locations near cruise terminal.",
    "port": "juneau"
  },

  "red-dog-saloon": {
    "id": "red-dog-saloon",
    "name": "Red Dog Saloon",
    "aliases": ["Red Dog", "saloon"],
    "lat": 58.3003,
    "lon": -134.4089,
    "type": "dining",
    "geometry": "point",
    "notes": "Historic saloon from gold rush era. Sawdust floors, live music, mounted animal heads, mining memorabilia. Famous 'duck fart' shots. Overlooking cruise docks.",
    "port": "juneau"
  },

  "hangar-on-the-wharf": {
    "id": "hangar-on-the-wharf",
    "name": "The Hangar On The Wharf",
    "aliases": ["The Hangar", "hangar restaurant"],
    "lat": 58.2981,
    "lon": -134.4075,
    "type": "dining",
    "geometry": "point",
    "notes": "Upscale waterfront restaurant in historic seaplane hangar. Fresh Alaskan seafood, craft cocktails, harbor views. Popular with locals and cruisers.",
    "port": "juneau"
  },

  "macaulay-salmon-hatchery": {
    "id": "macaulay-salmon-hatchery",
    "name": "Macaulay Salmon Hatchery",
    "aliases": ["DIPAC", "salmon hatchery"],
    "lat": 58.2933,
    "lon": -134.4194,
    "type": "attraction",
    "geometry": "point",
    "notes": "Working hatchery with aquarium, touch tanks, and salmon ladder viewing. See thousands of returning salmon in late summer. 15-minute walk from cruise terminal.",
    "port": "juneau"
  },

  "glacier-gardens": {
    "id": "glacier-gardens",
    "name": "Glacier Gardens Rainforest Adventure",
    "aliases": ["Glacier Gardens"],
    "lat": 58.3639,
    "lon": -134.5550,
    "type": "attraction",
    "geometry": "polygon",
    "notes": "Botanical garden in Tongass National Forest with famous upside-down trees. Guided tours through temperate rainforest. Panoramic views from upper garden.",
    "port": "juneau"
  },

  "herbert-glacier": {
    "id": "herbert-glacier",
    "name": "Herbert Glacier",
    "aliases": ["Herbert Glacier trail"],
    "lat": 58.5083,
    "lon": -134.7250,
    "type": "nature",
    "geometry": "polygon",
    "notes": "Destination for helicopter glacier tours and dog sledding adventures. Stunning aerial views over Juneau Icefield. Land on the ice for once-in-a-lifetime experience.",
    "port": "juneau"
  },

  "juneau-icefield": {
    "id": "juneau-icefield",
    "name": "Juneau Icefield",
    "aliases": ["icefield", "glacier field"],
    "lat": 58.6500,
    "lon": -134.3000,
    "type": "nature",
    "geometry": "polygon",
    "notes": "1,500 square mile ice mass with 38 glaciers. Accessed by helicopter tours for glacier landings, dog sledding, and flightseeing. Visible from whale watching tours.",
    "port": "juneau"
  },

  "gold-creek-salmon-bake": {
    "id": "gold-creek-salmon-bake",
    "name": "Gold Creek Salmon Bake",
    "aliases": ["salmon bake"],
    "lat": 58.3225,
    "lon": -134.4411,
    "type": "dining",
    "geometry": "point",
    "notes": "All-you-can-eat fresh salmon, halibut, reindeer sausage cooked over open fires in rainforest setting. Includes gold panning, s'mores. Authentic Alaskan experience.",
    "port": "juneau"
  },

  "treadwell-mine-historic-trail": {
    "id": "treadwell-mine-historic-trail",
    "name": "Treadwell Mine Historic Trail",
    "aliases": ["Treadwell Mine", "gold mine trail"],
    "lat": 58.2825,
    "lon": -134.3744,
    "type": "nature",
    "geometry": "line",
    "notes": "Historic gold mine ruins on Douglas Island across from downtown. Easy hiking through temperate rainforest with interpretive signs. Free to explore.",
    "port": "juneau"
  },

  "pelimeni": {
    "id": "pelimeni",
    "name": "Pel'meni",
    "aliases": ["Pelmeni", "dumplings"],
    "lat": 58.3006,
    "lon": -134.4097,
    "type": "dining",
    "geometry": "point",
    "notes": "Tiny Russian dumpling shop famous with locals. Simple menu: pelmeni (dumplings) with various toppings. Cash only, limited seating, open late.",
    "port": "juneau"
  }
}
