{
  "_meta": {
    "version": "1.0.0",
    "description": "Global POI index for port maps. POIs are referenced by ID in per-port manifests.",
    "updated": "2025-12-12",
    "schema": "/schema/poi-index.schema.json"
  },

  "aruba-cruise-terminal": {
    "id": "aruba-cruise-terminal",
    "name": "Aruba Cruise Terminal",
    "aliases": ["cruise port", "cruise terminal", "cruise facility"],
    "lat": 12.5186,
    "lon": -70.0358,
    "type": "port",
    "geometry": "point",
    "port": "aruba"
  },

  "eagle-beach": {
    "id": "eagle-beach",
    "name": "Eagle Beach",
    "aliases": ["Eagle beach", "eagle beach aruba", "fofoti trees"],
    "lat": 12.5512,
    "lon": -70.0567,
    "type": "beach",
    "geometry": "line",
    "notes": "Famous for bent fofoti/divi-divi trees. Consistently ranked top 3 beaches worldwide.",
    "port": "aruba"
  },

  "palm-beach": {
    "id": "palm-beach",
    "name": "Palm Beach",
    "aliases": ["Palm beach aruba", "high-rise beach"],
    "lat": 12.5756,
    "lon": -70.0567,
    "type": "beach",
    "geometry": "line",
    "notes": "High-rise hotel strip with beach bars and water sports.",
    "port": "aruba"
  },

  "baby-beach": {
    "id": "baby-beach",
    "name": "Baby Beach",
    "aliases": ["Baby beach aruba", "baby beach snorkeling"],
    "lat": 12.4225,
    "lon": -69.8672,
    "type": "beach",
    "geometry": "polygon",
    "notes": "Protected lagoon at Aruba's southern tip. Best shore snorkeling on the island.",
    "port": "aruba"
  },

  "surfside-beach": {
    "id": "surfside-beach",
    "name": "Surfside Beach",
    "aliases": ["Surfside beach aruba"],
    "lat": 12.5089,
    "lon": -70.0294,
    "type": "beach",
    "geometry": "point",
    "notes": "Closest beach to cruise port - 15 minute walk.",
    "port": "aruba"
  },

  "governors-bay-beach": {
    "id": "governors-bay-beach",
    "name": "Governor's Bay Beach",
    "aliases": ["Governor's Bay", "Governors Bay"],
    "lat": 12.5225,
    "lon": -70.0375,
    "type": "beach",
    "geometry": "point",
    "notes": "Walkable from port via Wilhelmina Park bridge. Quiet cove with calm water.",
    "port": "aruba"
  },

  "arashi-beach": {
    "id": "arashi-beach",
    "name": "Arashi Beach",
    "aliases": ["Arashi beach aruba"],
    "lat": 12.6111,
    "lon": -70.0536,
    "type": "beach",
    "geometry": "line",
    "notes": "Northwest tip near California Lighthouse. Public palapas, uncrowded.",
    "port": "aruba"
  },

  "california-lighthouse": {
    "id": "california-lighthouse",
    "name": "California Lighthouse",
    "aliases": ["California lighthouse aruba", "lighthouse"],
    "lat": 12.6139,
    "lon": -70.0508,
    "type": "landmark",
    "geometry": "point",
    "notes": "Northwest tip of island. Popular sunset spot.",
    "port": "aruba"
  },

  "natural-bridge": {
    "id": "natural-bridge",
    "name": "Natural Bridge",
    "aliases": ["natural bridge aruba", "limestone arch"],
    "lat": 12.5867,
    "lon": -69.9908,
    "type": "landmark",
    "geometry": "point",
    "notes": "Photogenic limestone arch, ~7 miles from port.",
    "port": "aruba"
  },

  "arikok-national-park": {
    "id": "arikok-national-park",
    "name": "Arikok National Park",
    "aliases": ["Arikok", "national park"],
    "lat": 12.4917,
    "lon": -69.9422,
    "type": "nature",
    "geometry": "polygon",
    "notes": "Rugged landscape, popular for jeep tours.",
    "port": "aruba"
  },

  "oranjestad-downtown": {
    "id": "oranjestad-downtown",
    "name": "Downtown Oranjestad",
    "aliases": ["Oranjestad", "downtown", "town center"],
    "lat": 12.5186,
    "lon": -70.0333,
    "type": "district",
    "geometry": "polygon",
    "notes": "Dutch colonial architecture, main shopping area.",
    "port": "aruba"
  },

  "caya-betico-croes": {
    "id": "caya-betico-croes",
    "name": "Caya G.F. Betico Croes",
    "aliases": ["main street", "pedestrian street", "shopping street"],
    "lat": 12.5197,
    "lon": -70.0322,
    "type": "district",
    "geometry": "line",
    "notes": "Pedestrian-friendly shaded shopping street.",
    "port": "aruba"
  },

  "renaissance-marketplace": {
    "id": "renaissance-marketplace",
    "name": "Renaissance Marketplace",
    "aliases": ["Renaissance Mall", "duty-free shopping"],
    "lat": 12.5178,
    "lon": -70.0347,
    "type": "shopping",
    "geometry": "point",
    "notes": "Major duty-free shopping destination.",
    "port": "aruba"
  },

  "renaissance-island": {
    "id": "renaissance-island",
    "name": "Renaissance Island",
    "aliases": ["flamingo beach", "Renaissance private island"],
    "lat": 12.5083,
    "lon": -70.0403,
    "type": "attraction",
    "geometry": "polygon",
    "notes": "Private island with flamingos. Day passes available but pricey.",
    "port": "aruba"
  },

  "archaeological-museum-aruba": {
    "id": "archaeological-museum-aruba",
    "name": "Archaeological Museum of Aruba",
    "aliases": ["Archaeological Museum", "museum"],
    "lat": 12.5200,
    "lon": -70.0342,
    "type": "museum",
    "geometry": "point",
    "notes": "0.3 miles from terminals. Free admission. Collections span 2500 BC to modern day.",
    "port": "aruba"
  },

  "butterfly-farm-aruba": {
    "id": "butterfly-farm-aruba",
    "name": "Butterfly Farm",
    "aliases": ["Butterfly Farm aruba"],
    "lat": 12.5564,
    "lon": -70.0508,
    "type": "attraction",
    "geometry": "point",
    "notes": "About 4 miles from port. Tropical garden with butterflies from around the world.",
    "port": "aruba"
  },

  "donkey-sanctuary-aruba": {
    "id": "donkey-sanctuary-aruba",
    "name": "Donkey Sanctuary",
    "aliases": ["Donkey Sanctuary aruba", "donkeys"],
    "lat": 12.5086,
    "lon": -69.9519,
    "type": "attraction",
    "geometry": "point",
    "notes": "Six miles from port. Rescue haven where you can feed friendly donkeys.",
    "port": "aruba"
  },

  "wilhelmina-park": {
    "id": "wilhelmina-park",
    "name": "Wilhelmina Park",
    "aliases": ["Wilhelmina Park aruba"],
    "lat": 12.5211,
    "lon": -70.0375,
    "type": "park",
    "geometry": "polygon",
    "notes": "Near Governor's Bay Beach. Bridge access.",
    "port": "aruba"
  },

  "linear-park-aruba": {
    "id": "linear-park-aruba",
    "name": "Linear Park",
    "aliases": ["Linear Park waterfront"],
    "lat": 12.5175,
    "lon": -70.0378,
    "type": "park",
    "geometry": "line",
    "notes": "Waterfront promenade with restaurants.",
    "port": "aruba"
  },

  "casibari-rock-formations": {
    "id": "casibari-rock-formations",
    "name": "Casibari Rock Formations",
    "aliases": ["Casibari", "rock formations"],
    "lat": 12.5211,
    "lon": -69.9831,
    "type": "landmark",
    "geometry": "point",
    "notes": "Unique boulder formations. Popular on taxi tours.",
    "port": "aruba"
  }
}
