{
  "port_slug": "roatan",
  "port_name": "Roatan",
  "port_pin": {
    "lat": 16.3182,
    "lon": -86.5236,
    "label": "Mahogany Bay Cruise Center"
  },
  "poi_ids": [
    "mahogany-bay",
    "west-bay-beach",
    "west-end-village",
    "gumbalimba-park",
    "roatan-marine-park",
    "little-french-key",
    "carambola-gardens",
    "dolphin-encounter",
    "coxen-hole-pier",
    "half-moon-bay-roatan",
    "starfish-alley-roatan"
  ],
  "pois": [
    { "id": "mahogany-bay", "name": "Mahogany Bay Cruise Center", "lat": 16.3182, "lon": -86.5236, "type": "port" },
    { "id": "coxen-hole-pier", "name": "Coxen Hole Town Center Pier", "lat": 16.3150, "lon": -86.5540, "type": "port" },
    { "id": "west-bay-beach", "name": "West Bay Beach", "lat": 16.2876, "lon": -86.5976, "type": "beach" },
    { "id": "west-end-village", "name": "West End Village", "lat": 16.2963, "lon": -86.5890, "type": "town" },
    { "id": "gumbalimba-park", "name": "Gumbalimba Park", "lat": 16.2920, "lon": -86.5800, "type": "attraction" },
    { "id": "roatan-marine-park", "name": "Roatan Marine Park", "lat": 16.2900, "lon": -86.5900, "type": "scenic" },
    { "id": "little-french-key", "name": "Little French Key", "lat": 16.3320, "lon": -86.4480, "type": "beach" },
    { "id": "carambola-gardens", "name": "Carambola Botanical Gardens", "lat": 16.3450, "lon": -86.5300, "type": "attraction" },
    { "id": "dolphin-encounter", "name": "Anthony's Key Dolphin Encounter", "lat": 16.3380, "lon": -86.5650, "type": "attraction" },
    { "id": "half-moon-bay-roatan", "name": "Half Moon Bay", "lat": 16.2980, "lon": -86.5870, "type": "beach" },
    { "id": "starfish-alley-roatan", "name": "Starfish Alley", "lat": 16.2900, "lon": -86.5940, "type": "scenic" }
  ],
  "bbox_hint": {
    "south": 16.25,
    "west": -86.60,
    "north": 16.40,
    "east": -86.45
  },
  "notes": "Honduras' Caribbean gem with legendary diving on the Mesoamerican Barrier Reef and pristine beaches.",
  "generated": "2025-12-17T00:00:00Z"
}
