{
  "_meta": {
    "version": "1.0.0",
    "generated": "2025-12-13T00:00:00Z",
    "source": "Researched from Tauranga NZ tourism and cruise port guides"
  },

  "port_slug": "tauranga",
  "port_name": "Tauranga",
  "port_pin": {
    "lat": -37.6478,
    "lon": 176.1711,
    "label": "Port of Tauranga Cruise Terminal"
  },

  "bbox_hint": {
    "south": -37.80,
    "west": 175.95,
    "north": -37.55,
    "east": 176.35,
    "note": "Covers Tauranga, Mount Maunganui, access to Rotorua and Hobbiton"
  },

  "poi_ids": [],

  "label_overrides": {},

  "approximate_markers": [
    {"name": "Port of Tauranga", "lat": -37.6478, "lon": 176.1711, "type": "port"},
    {"name": "Mount Maunganui", "lat": -37.6343, "lon": 176.1800, "type": "scenic"},
    {"name": "Tauranga City Center", "lat": -37.6878, "lon": 176.1651, "type": "town"},
    {"name": "Te Puia (Rotorua)", "lat": -38.1614, "lon": 176.2517, "type": "cultural"},
    {"name": "Hobbiton Movie Set", "lat": -37.8567, "lon": 175.6820, "type": "attraction"},
    {"name": "Wai-O-Tapu", "lat": -38.3553, "lon": 176.3689, "type": "nature"}
  ],

  "transit_routes": [
    {
      "id": "shuttle-mount",
      "name": "Shuttle to Mount Maunganui",
      "type": "shuttle",
      "cost": "$15-20 NZD",
      "duration": "10-15 minutes",
      "note": "Beach town with iconic volcanic cone to climb."
    },
    {
      "id": "tour-rotorua",
      "name": "Tour to Rotorua",
      "type": "tour",
      "cost": "$150-200 NZD",
      "duration": "Full day",
      "note": "Geothermal wonders, Māori culture, adventure activities."
    },
    {
      "id": "tour-hobbiton",
      "name": "Tour to Hobbiton",
      "type": "tour",
      "cost": "$200-250 NZD",
      "duration": "Half day",
      "note": "Lord of the Rings/Hobbit movie set. Book in advance."
    }
  ],

  "featured_experiences": [
    {
      "name": "Rotorua Geothermal",
      "type": "nature",
      "duration": "Full day",
      "highlights": ["Te Puia geysers", "Māori cultural performance", "Mud pools", "Wai-O-Tapu"],
      "note": "Experience New Zealand's volcanic heart and rich Māori heritage."
    },
    {
      "name": "Hobbiton Movie Set",
      "type": "attraction",
      "duration": "Half day",
      "highlights": ["44 Hobbit holes", "Green Dragon Inn", "Movie magic", "Shire landscapes"],
      "note": "Step into Middle-earth at this world-famous film location."
    },
    {
      "name": "Mount Maunganui",
      "type": "scenic",
      "duration": "2-3 hours",
      "highlights": ["Beach walks", "Summit climb", "Ocean views", "Cafés"],
      "note": "Climb 'The Mount' for panoramic views or relax on the beach."
    }
  ]
}
