{
  "port_slug": "trieste",
  "port_name": "Trieste",
  "port_pin": {
    "lat": 45.6495,
    "lon": 13.7768,
    "label": "Trieste Cruise Terminal"
  },
  "poi_ids": [
    "trieste-cruise-terminal",
    "piazza-unita-italia",
    "miramare-castle",
    "san-giusto-cathedral",
    "canal-grande",
    "risiera-san-sabba",
    "grotta-gigante",
    "karst-region",
    "caffe-san-marco",
    "teatro-romano",
    "trieste-synagogue"
  ],
  "bbox_hint": {
    "south": 45.60,
    "west": 13.70,
    "north": 45.70,
    "east": 13.85
  },
  "pois": [
    { "id": "trieste-cruise-terminal", "lat": 45.6495, "lon": 13.7768, "name": "Trieste Cruise Terminal (Molo Bersaglieri)" },
    { "id": "piazza-unita-italia", "lat": 45.6509, "lon": 13.7689, "name": "Piazza Unità d'Italia" },
    { "id": "miramare-castle", "lat": 45.6893, "lon": 13.7130, "name": "Miramare Castle" },
    { "id": "san-giusto-cathedral", "lat": 45.6472, "lon": 13.7723, "name": "San Giusto Cathedral & Castle" },
    { "id": "canal-grande", "lat": 45.6527, "lon": 13.7720, "name": "Canal Grande & Ponte Rosso" },
    { "id": "risiera-san-sabba", "lat": 45.6153, "lon": 13.7846, "name": "Risiera di San Sabba Memorial" },
    { "id": "grotta-gigante", "lat": 45.7094, "lon": 13.7638, "name": "Grotta Gigante" },
    { "id": "karst-region", "lat": 45.6800, "lon": 13.7900, "name": "Karst Plateau Region" },
    { "id": "caffe-san-marco", "lat": 45.6514, "lon": 13.7758, "name": "Caffè San Marco" },
    { "id": "teatro-romano", "lat": 45.6480, "lon": 13.7736, "name": "Roman Theatre of Trieste" },
    { "id": "trieste-synagogue", "lat": 45.6520, "lon": 13.7780, "name": "Synagogue of Trieste" }
  ],
  "notes": "Italy's Habsburg jewel on the Adriatic with grand Miramare Castle, literary cafés, and Karst caves.",
  "generated": "2025-12-17T00:00:00Z"
}
