{
  "$schema": "https://cruisinginthewake.com/schemas/port-registry.schema.json",
  "$version": "1.0.0",
  "$description": "Canonical port data registry for In the Wake - used by weather validator and weather fetcher",
  "$generated": "2025-12-31T21:04:11.334Z",
  "ports": {
    "aruba": {
      "name": "Aruba",
      "lat": 12.5211,
      "lon": -69.9683,
      "region": "caribbean",
      "climatePattern": "tropical-hurricane",
      "tier": 1,
      "tenderPort": false,
      "pageUrl": "/ports/aruba.html",
      "lastVerified": "2025-12-31"
    },
    "bonaire": {
      "name": "Bonaire",
      "lat": 12.1696,
      "lon": -68.29,
      "region": "caribbean",
      "climatePattern": "tropical-hurricane",
      "tier": 2,
      "tenderPort": false,
      "pageUrl": "/ports/bonaire.html",
      "lastVerified": "2025-12-31"
    },
    "curacao": {
      "name": "Curaçao",
      "lat": 12.1696,
      "lon": -68.99,
      "region": "caribbean",
      "climatePattern": "tropical-hurricane",
      "tier": 1,
      "tenderPort": false,
      "pageUrl": "/ports/curacao.html",
      "lastVerified": "2025-12-31"
    },
    "cococay": {
      "name": "CocoCay",
      "lat": 25.7617,
      "lon": -77.9539,
      "region": "caribbean",
      "climatePattern": "tropical-hurricane",
      "tier": 2,
      "tenderPort": false,
      "pageUrl": "/ports/cococay.html",
      "lastVerified": "2025-12-31"
    },
    "nassau": {
      "name": "Nassau",
      "lat": 25.048,
      "lon": -77.3554,
      "region": "caribbean",
      "climatePattern": "tropical-hurricane",
      "tier": 1,
      "tenderPort": false,
      "pageUrl": "/ports/nassau.html",
      "lastVerified": "2025-12-31"
    },
    "labadee": {
      "name": "Labadee",
      "lat": 19.7808,
      "lon": -72.2484,
      "region": "caribbean",
      "climatePattern": "tropical-hurricane",
      "tier": 2,
      "tenderPort": false,
      "pageUrl": "/ports/labadee.html",
      "lastVerified": "2025-12-31"
    },
    "cozumel": {
      "name": "Cozumel",
      "lat": 20.4318,
      "lon": -86.9203,
      "region": "caribbean",
      "climatePattern": "tropical-hurricane",
      "tier": 1,
      "tenderPort": false,
      "pageUrl": "/ports/cozumel.html",
      "lastVerified": "2025-12-31"
    },
    "costa-maya": {
      "name": "Costa Maya",
      "lat": 18.7167,
      "lon": -87.6833,
      "region": "caribbean",
      "climatePattern": "tropical-hurricane",
      "tier": 1,
      "tenderPort": false,
      "pageUrl": "/ports/costa-maya.html",
      "lastVerified": "2025-12-31"
    },
    "jamaica": {
      "name": "Falmouth (Jamaica)",
      "lat": 18.494,
      "lon": -77.6554,
      "region": "caribbean",
      "climatePattern": "tropical-hurricane",
      "tier": 2,
      "tenderPort": false,
      "pageUrl": "/ports/jamaica.html",
      "lastVerified": "2025-12-31"
    },
    "grand-cayman": {
      "name": "Grand Cayman",
      "lat": 19.2869,
      "lon": -81.3674,
      "region": "caribbean",
      "climatePattern": "tropical-hurricane",
      "tier": 1,
      "tenderPort": true,
      "pageUrl": "/ports/grand-cayman.html",
      "lastVerified": "2025-12-31"
    },
    "roatan": {
      "name": "Roatán",
      "lat": 16.3167,
      "lon": -86.5333,
      "region": "caribbean",
      "climatePattern": "tropical-hurricane",
      "tier": 1,
      "tenderPort": false,
      "pageUrl": "/ports/roatan.html",
      "lastVerified": "2025-12-31"
    },
    "belize": {
      "name": "Belize City",
      "lat": 17.4985,
      "lon": -88.1892,
      "region": "caribbean",
      "climatePattern": "tropical-hurricane",
      "tier": 2,
      "tenderPort": false,
      "pageUrl": "/ports/belize.html",
      "lastVerified": "2025-12-31"
    },
    "san-juan": {
      "name": "San Juan",
      "lat": 18.4655,
      "lon": -66.1057,
      "region": "caribbean",
      "climatePattern": "tropical-hurricane",
      "tier": 1,
      "tenderPort": false,
      "pageUrl": "/ports/san-juan.html",
      "lastVerified": "2025-12-31"
    },
    "st-thomas": {
      "name": "St. Thomas",
      "lat": 18.3358,
      "lon": -64.8963,
      "region": "caribbean",
      "climatePattern": "tropical-hurricane",
      "tier": 1,
      "tenderPort": false,
      "pageUrl": "/ports/st-thomas.html",
      "lastVerified": "2025-12-31"
    },
    "st-maarten": {
      "name": "St. Maarten",
      "lat": 18.0237,
      "lon": -63.0458,
      "region": "caribbean",
      "climatePattern": "tropical-hurricane",
      "tier": 1,
      "tenderPort": false,
      "pageUrl": "/ports/st-maarten.html",
      "lastVerified": "2025-12-31"
    },
    "st-kitts": {
      "name": "St. Kitts",
      "lat": 17.3026,
      "lon": -62.7177,
      "region": "caribbean",
      "climatePattern": "tropical-hurricane",
      "tier": 2,
      "tenderPort": false,
      "pageUrl": "/ports/st-kitts.html",
      "lastVerified": "2025-12-31"
    },
    "antigua": {
      "name": "Antigua",
      "lat": 17.1175,
      "lon": -61.8456,
      "region": "caribbean",
      "climatePattern": "tropical-hurricane",
      "tier": 2,
      "tenderPort": false,
      "pageUrl": "/ports/antigua.html",
      "lastVerified": "2025-12-31"
    },
    "dominica": {
      "name": "Dominica",
      "lat": 15.415,
      "lon": -61.371,
      "region": "caribbean",
      "climatePattern": "tropical-hurricane",
      "tier": 2,
      "tenderPort": false,
      "pageUrl": "/ports/dominica.html",
      "lastVerified": "2025-12-31"
    },
    "martinique": {
      "name": "Martinique",
      "lat": 14.6415,
      "lon": -61.0242,
      "region": "caribbean",
      "climatePattern": "tropical-hurricane",
      "tier": 2,
      "tenderPort": false,
      "pageUrl": "/ports/martinique.html",
      "lastVerified": "2025-12-31"
    },
    "guadeloupe": {
      "name": "Guadeloupe",
      "lat": 16.265,
      "lon": -61.551,
      "region": "caribbean",
      "climatePattern": "tropical-hurricane",
      "tier": 2,
      "tenderPort": false,
      "pageUrl": "/ports/guadeloupe.html",
      "lastVerified": "2025-12-31"
    },
    "barbados": {
      "name": "Barbados",
      "lat": 13.1939,
      "lon": -59.5432,
      "region": "caribbean",
      "climatePattern": "tropical-hurricane",
      "tier": 2,
      "tenderPort": false,
      "pageUrl": "/ports/barbados.html",
      "lastVerified": "2025-12-31"
    },
    "grenada": {
      "name": "Grenada",
      "lat": 12.0523,
      "lon": -61.7505,
      "region": "caribbean",
      "climatePattern": "tropical-hurricane",
      "tier": 2,
      "tenderPort": false,
      "pageUrl": "/ports/grenada.html",
      "lastVerified": "2025-12-31"
    },
    "tortola": {
      "name": "Tortola",
      "lat": 18.4264,
      "lon": -64.6209,
      "region": "caribbean",
      "climatePattern": "tropical-hurricane",
      "tier": 2,
      "tenderPort": false,
      "pageUrl": "/ports/tortola.html",
      "lastVerified": "2025-12-31"
    },
    "virgin-gorda": {
      "name": "Virgin Gorda",
      "lat": 18.4547,
      "lon": -64.4286,
      "region": "caribbean",
      "climatePattern": "tropical-hurricane",
      "tier": 2,
      "tenderPort": false,
      "pageUrl": "/ports/virgin-gorda.html",
      "lastVerified": "2025-12-31"
    },
    "grand-turk": {
      "name": "Grand Turk",
      "lat": 21.4674,
      "lon": -71.1389,
      "region": "caribbean",
      "climatePattern": "tropical-hurricane",
      "tier": 2,
      "tenderPort": false,
      "pageUrl": "/ports/grand-turk.html",
      "lastVerified": "2025-12-31"
    },
    "samana": {
      "name": "Samaná",
      "lat": 19.2059,
      "lon": -69.3363,
      "region": "caribbean",
      "climatePattern": "tropical-hurricane",
      "tier": 2,
      "tenderPort": false,
      "pageUrl": "/ports/samana.html",
      "lastVerified": "2025-12-31"
    },
    "cartagena": {
      "name": "Cartagena",
      "lat": 10.391,
      "lon": -75.4794,
      "region": "caribbean",
      "climatePattern": "tropical-hurricane",
      "tier": 2,
      "tenderPort": false,
      "pageUrl": "/ports/cartagena.html",
      "lastVerified": "2025-12-31"
    },
    "progreso": {
      "name": "Progreso",
      "lat": 21.2833,
      "lon": -89.6667,
      "region": "caribbean",
      "climatePattern": "tropical-hurricane",
      "tier": 2,
      "tenderPort": false,
      "pageUrl": "/ports/progreso.html",
      "lastVerified": "2025-12-31"
    },
    "key-west": {
      "name": "Key West",
      "lat": 24.5551,
      "lon": -81.78,
      "region": "caribbean",
      "climatePattern": "tropical-hurricane",
      "tier": 1,
      "tenderPort": false,
      "pageUrl": "/ports/key-west.html",
      "lastVerified": "2025-12-31"
    },
    "bermuda": {
      "name": "Bermuda",
      "lat": 32.3078,
      "lon": -64.7505,
      "region": "caribbean",
      "climatePattern": "tropical-hurricane",
      "tier": 1,
      "tenderPort": false,
      "pageUrl": "/ports/bermuda.html",
      "lastVerified": "2025-12-31"
    },
    "barcelona": {
      "name": "Barcelona",
      "lat": 41.3851,
      "lon": 2.1734,
      "region": "mediterranean",
      "climatePattern": "mediterranean",
      "tier": 1,
      "tenderPort": false,
      "pageUrl": "/ports/barcelona.html",
      "lastVerified": "2025-12-31"
    },
    "civitavecchia": {
      "name": "Civitavecchia (Rome)",
      "lat": 42.0935,
      "lon": 11.7958,
      "region": "mediterranean",
      "climatePattern": "mediterranean",
      "tier": 1,
      "tenderPort": false,
      "pageUrl": "/ports/civitavecchia.html",
      "lastVerified": "2025-12-31"
    },
    "naples": {
      "name": "Naples",
      "lat": 40.8518,
      "lon": 14.2681,
      "region": "mediterranean",
      "climatePattern": "mediterranean",
      "tier": 1,
      "tenderPort": false,
      "pageUrl": "/ports/naples.html",
      "lastVerified": "2025-12-31"
    },
    "marseille": {
      "name": "Marseille",
      "lat": 43.2965,
      "lon": 5.3698,
      "region": "mediterranean",
      "climatePattern": "mediterranean",
      "tier": 1,
      "tenderPort": false,
      "pageUrl": "/ports/marseille.html",
      "lastVerified": "2025-12-31"
    },
    "villefranche": {
      "name": "Villefranche",
      "lat": 43.7046,
      "lon": 7.3117,
      "region": "mediterranean",
      "climatePattern": "mediterranean",
      "tier": 2,
      "tenderPort": false,
      "pageUrl": "/ports/villefranche.html",
      "lastVerified": "2025-12-31"
    },
    "monte-carlo": {
      "name": "Monte Carlo",
      "lat": 43.7384,
      "lon": 7.4246,
      "region": "mediterranean",
      "climatePattern": "mediterranean",
      "tier": 2,
      "tenderPort": false,
      "pageUrl": "/ports/monte-carlo.html",
      "lastVerified": "2025-12-31"
    },
    "cannes": {
      "name": "Cannes",
      "lat": 43.5528,
      "lon": 7.0174,
      "region": "mediterranean",
      "climatePattern": "mediterranean",
      "tier": 2,
      "tenderPort": false,
      "pageUrl": "/ports/cannes.html",
      "lastVerified": "2025-12-31"
    },
    "livorno": {
      "name": "Livorno (Florence)",
      "lat": 43.5485,
      "lon": 10.3106,
      "region": "mediterranean",
      "climatePattern": "mediterranean",
      "tier": 2,
      "tenderPort": false,
      "pageUrl": "/ports/livorno.html",
      "lastVerified": "2025-12-31"
    },
    "genoa": {
      "name": "Genoa",
      "lat": 44.4056,
      "lon": 8.9463,
      "region": "mediterranean",
      "climatePattern": "mediterranean",
      "tier": 2,
      "tenderPort": false,
      "pageUrl": "/ports/genoa.html",
      "lastVerified": "2025-12-31"
    },
    "venice": {
      "name": "Venice",
      "lat": 45.4408,
      "lon": 12.3155,
      "region": "mediterranean",
      "climatePattern": "mediterranean",
      "tier": 1,
      "tenderPort": false,
      "pageUrl": "/ports/venice.html",
      "lastVerified": "2025-12-31"
    },
    "dubrovnik": {
      "name": "Dubrovnik",
      "lat": 42.6507,
      "lon": 18.0944,
      "region": "mediterranean",
      "climatePattern": "mediterranean",
      "tier": 1,
      "tenderPort": false,
      "pageUrl": "/ports/dubrovnik.html",
      "lastVerified": "2025-12-31"
    },
    "kotor": {
      "name": "Kotor",
      "lat": 42.4247,
      "lon": 18.7712,
      "region": "mediterranean",
      "climatePattern": "mediterranean",
      "tier": 2,
      "tenderPort": false,
      "pageUrl": "/ports/kotor.html",
      "lastVerified": "2025-12-31"
    },
    "santorini": {
      "name": "Santorini",
      "lat": 36.3932,
      "lon": 25.4615,
      "region": "mediterranean",
      "climatePattern": "mediterranean",
      "tier": 1,
      "tenderPort": true,
      "pageUrl": "/ports/santorini.html",
      "lastVerified": "2025-12-31"
    },
    "mykonos": {
      "name": "Mykonos",
      "lat": 37.4467,
      "lon": 25.3289,
      "region": "mediterranean",
      "climatePattern": "mediterranean",
      "tier": 1,
      "tenderPort": false,
      "pageUrl": "/ports/mykonos.html",
      "lastVerified": "2025-12-31"
    },
    "athens": {
      "name": "Athens (Piraeus)",
      "lat": 37.9438,
      "lon": 23.646,
      "region": "mediterranean",
      "climatePattern": "mediterranean",
      "tier": 2,
      "tenderPort": false,
      "pageUrl": "/ports/athens.html",
      "lastVerified": "2025-12-31"
    },
    "rhodes": {
      "name": "Rhodes",
      "lat": 36.4349,
      "lon": 28.2176,
      "region": "mediterranean",
      "climatePattern": "mediterranean",
      "tier": 2,
      "tenderPort": false,
      "pageUrl": "/ports/rhodes.html",
      "lastVerified": "2025-12-31"
    },
    "kusadasi": {
      "name": "Kusadasi (Ephesus)",
      "lat": 37.8579,
      "lon": 27.261,
      "region": "mediterranean",
      "climatePattern": "mediterranean",
      "tier": 2,
      "tenderPort": false,
      "pageUrl": "/ports/kusadasi.html",
      "lastVerified": "2025-12-31"
    },
    "lisbon": {
      "name": "Lisbon",
      "lat": 38.7223,
      "lon": -9.1393,
      "region": "mediterranean",
      "climatePattern": "mediterranean",
      "tier": 2,
      "tenderPort": false,
      "pageUrl": "/ports/lisbon.html",
      "lastVerified": "2025-12-31"
    },
    "gibraltar": {
      "name": "Gibraltar",
      "lat": 36.1408,
      "lon": -5.3536,
      "region": "mediterranean",
      "climatePattern": "mediterranean",
      "tier": 2,
      "tenderPort": false,
      "pageUrl": "/ports/gibraltar.html",
      "lastVerified": "2025-12-31"
    },
    "malaga": {
      "name": "Málaga",
      "lat": 36.7213,
      "lon": -4.4214,
      "region": "mediterranean",
      "climatePattern": "mediterranean",
      "tier": 2,
      "tenderPort": false,
      "pageUrl": "/ports/malaga.html",
      "lastVerified": "2025-12-31"
    },
    "cadiz": {
      "name": "Cádiz",
      "lat": 36.5271,
      "lon": -6.2886,
      "region": "mediterranean",
      "climatePattern": "mediterranean",
      "tier": 2,
      "tenderPort": false,
      "pageUrl": "/ports/cadiz.html",
      "lastVerified": "2025-12-31"
    },
    "palma": {
      "name": "Palma de Mallorca",
      "lat": 39.5696,
      "lon": 2.6502,
      "region": "mediterranean",
      "climatePattern": "mediterranean",
      "tier": 2,
      "tenderPort": false,
      "pageUrl": "/ports/palma.html",
      "lastVerified": "2025-12-31"
    },
    "ibiza": {
      "name": "Ibiza",
      "lat": 38.9067,
      "lon": 1.4206,
      "region": "mediterranean",
      "climatePattern": "mediterranean",
      "tier": 2,
      "tenderPort": false,
      "pageUrl": "/ports/ibiza.html",
      "lastVerified": "2025-12-31"
    },
    "valencia": {
      "name": "Valencia",
      "lat": 39.4699,
      "lon": -0.3763,
      "region": "mediterranean",
      "climatePattern": "mediterranean",
      "tier": 2,
      "tenderPort": false,
      "pageUrl": "/ports/valencia.html",
      "lastVerified": "2025-12-31"
    },
    "southampton": {
      "name": "Southampton",
      "lat": 50.9097,
      "lon": -1.4044,
      "region": "northern-europe",
      "climatePattern": "northern-europe",
      "tier": 2,
      "tenderPort": false,
      "pageUrl": "/ports/southampton.html",
      "lastVerified": "2025-12-31"
    },
    "dover": {
      "name": "Dover",
      "lat": 51.1279,
      "lon": 1.3134,
      "region": "northern-europe",
      "climatePattern": "northern-europe",
      "tier": 2,
      "tenderPort": false,
      "pageUrl": "/ports/dover.html",
      "lastVerified": "2025-12-31"
    },
    "amsterdam": {
      "name": "Amsterdam",
      "lat": 52.3676,
      "lon": 4.9041,
      "region": "northern-europe",
      "climatePattern": "northern-europe",
      "tier": 1,
      "tenderPort": false,
      "pageUrl": "/ports/amsterdam.html",
      "lastVerified": "2025-12-31"
    },
    "copenhagen": {
      "name": "Copenhagen",
      "lat": 55.6761,
      "lon": 12.5683,
      "region": "northern-europe",
      "climatePattern": "northern-europe",
      "tier": 1,
      "tenderPort": false,
      "pageUrl": "/ports/copenhagen.html",
      "lastVerified": "2025-12-31"
    },
    "stockholm": {
      "name": "Stockholm",
      "lat": 59.3293,
      "lon": 18.0686,
      "region": "northern-europe",
      "climatePattern": "northern-europe",
      "tier": 2,
      "tenderPort": false,
      "pageUrl": "/ports/stockholm.html",
      "lastVerified": "2025-12-31"
    },
    "helsinki": {
      "name": "Helsinki",
      "lat": 60.1699,
      "lon": 24.9384,
      "region": "northern-europe",
      "climatePattern": "northern-europe",
      "tier": 2,
      "tenderPort": false,
      "pageUrl": "/ports/helsinki.html",
      "lastVerified": "2025-12-31"
    },
    "st-petersburg": {
      "name": "St. Petersburg",
      "lat": 59.9311,
      "lon": 30.3609,
      "region": "northern-europe",
      "climatePattern": "northern-europe",
      "tier": 2,
      "tenderPort": false,
      "pageUrl": "/ports/st-petersburg.html",
      "lastVerified": "2025-12-31"
    },
    "tallinn": {
      "name": "Tallinn",
      "lat": 59.437,
      "lon": 24.7536,
      "region": "northern-europe",
      "climatePattern": "northern-europe",
      "tier": 2,
      "tenderPort": false,
      "pageUrl": "/ports/tallinn.html",
      "lastVerified": "2025-12-31"
    },
    "bergen": {
      "name": "Bergen",
      "lat": 60.3913,
      "lon": 5.3221,
      "region": "northern-europe",
      "climatePattern": "northern-europe",
      "tier": 2,
      "tenderPort": false,
      "pageUrl": "/ports/bergen.html",
      "lastVerified": "2025-12-31"
    },
    "oslo": {
      "name": "Oslo",
      "lat": 59.9139,
      "lon": 10.7522,
      "region": "northern-europe",
      "climatePattern": "northern-europe",
      "tier": 2,
      "tenderPort": false,
      "pageUrl": "/ports/oslo.html",
      "lastVerified": "2025-12-31"
    },
    "reykjavik": {
      "name": "Reykjavik",
      "lat": 64.1466,
      "lon": -21.9426,
      "region": "northern-europe",
      "climatePattern": "northern-europe",
      "tier": 1,
      "tenderPort": false,
      "pageUrl": "/ports/reykjavik.html",
      "lastVerified": "2025-12-31"
    },
    "dublin": {
      "name": "Dublin",
      "lat": 53.3498,
      "lon": -6.2603,
      "region": "northern-europe",
      "climatePattern": "northern-europe",
      "tier": 2,
      "tenderPort": false,
      "pageUrl": "/ports/dublin.html",
      "lastVerified": "2025-12-31"
    },
    "juneau": {
      "name": "Juneau",
      "lat": 58.3019,
      "lon": -134.4197,
      "region": "alaska",
      "climatePattern": "alaska",
      "tier": 1,
      "tenderPort": false,
      "pageUrl": "/ports/juneau.html",
      "lastVerified": "2025-12-31"
    },
    "ketchikan": {
      "name": "Ketchikan",
      "lat": 55.3422,
      "lon": -131.6461,
      "region": "alaska",
      "climatePattern": "alaska",
      "tier": 1,
      "tenderPort": false,
      "pageUrl": "/ports/ketchikan.html",
      "lastVerified": "2025-12-31"
    },
    "skagway": {
      "name": "Skagway",
      "lat": 59.4583,
      "lon": -135.3139,
      "region": "alaska",
      "climatePattern": "alaska",
      "tier": 1,
      "tenderPort": false,
      "pageUrl": "/ports/skagway.html",
      "lastVerified": "2025-12-31"
    },
    "sitka": {
      "name": "Sitka",
      "lat": 57.0531,
      "lon": -135.33,
      "region": "alaska",
      "climatePattern": "alaska",
      "tier": 1,
      "tenderPort": false,
      "pageUrl": "/ports/sitka.html",
      "lastVerified": "2025-12-31"
    },
    "glacier-bay": {
      "name": "Glacier Bay",
      "lat": 58.5,
      "lon": -136,
      "region": "alaska",
      "climatePattern": "alaska",
      "tier": 1,
      "tenderPort": true,
      "pageUrl": "/ports/glacier-bay.html",
      "lastVerified": "2025-12-31"
    },
    "seward": {
      "name": "Seward",
      "lat": 60.1042,
      "lon": -149.4422,
      "region": "alaska",
      "climatePattern": "alaska",
      "tier": 2,
      "tenderPort": false,
      "pageUrl": "/ports/seward.html",
      "lastVerified": "2025-12-31"
    },
    "whittier": {
      "name": "Whittier",
      "lat": 60.7733,
      "lon": -148.6789,
      "region": "alaska",
      "climatePattern": "alaska",
      "tier": 2,
      "tenderPort": false,
      "pageUrl": "/ports/whittier.html",
      "lastVerified": "2025-12-31"
    },
    "icy-strait-point": {
      "name": "Icy Strait Point",
      "lat": 58.1333,
      "lon": -135.4333,
      "region": "alaska",
      "climatePattern": "alaska",
      "tier": 2,
      "tenderPort": false,
      "pageUrl": "/ports/icy-strait-point.html",
      "lastVerified": "2025-12-31"
    },
    "anchorage": {
      "name": "Anchorage",
      "lat": 61.2181,
      "lon": -149.9003,
      "region": "alaska",
      "climatePattern": "alaska",
      "tier": 2,
      "tenderPort": false,
      "pageUrl": "/ports/anchorage.html",
      "lastVerified": "2025-12-31"
    },
    "victoria-bc": {
      "name": "Victoria (BC)",
      "lat": 48.4284,
      "lon": -123.3656,
      "region": "alaska",
      "climatePattern": "alaska",
      "tier": 2,
      "tenderPort": false,
      "pageUrl": "/ports/victoria-bc.html",
      "lastVerified": "2025-12-31"
    },
    "honolulu": {
      "name": "Honolulu",
      "lat": 21.3069,
      "lon": -157.8583,
      "region": "pacific",
      "climatePattern": "pacific-tropical",
      "tier": 1,
      "tenderPort": false,
      "pageUrl": "/ports/honolulu.html",
      "lastVerified": "2025-12-31"
    },
    "maui": {
      "name": "Maui",
      "lat": 20.7984,
      "lon": -156.3319,
      "region": "pacific",
      "climatePattern": "pacific-tropical",
      "tier": 2,
      "tenderPort": false,
      "pageUrl": "/ports/maui.html",
      "lastVerified": "2025-12-31"
    },
    "kona": {
      "name": "Kona",
      "lat": 19.64,
      "lon": -155.9969,
      "region": "pacific",
      "climatePattern": "pacific-tropical",
      "tier": 2,
      "tenderPort": false,
      "pageUrl": "/ports/kona.html",
      "lastVerified": "2025-12-31"
    },
    "hilo": {
      "name": "Hilo",
      "lat": 19.7297,
      "lon": -155.09,
      "region": "pacific",
      "climatePattern": "pacific-tropical",
      "tier": 2,
      "tenderPort": false,
      "pageUrl": "/ports/hilo.html",
      "lastVerified": "2025-12-31"
    },
    "nawiliwili": {
      "name": "Nawiliwili (Kauai)",
      "lat": 21.9545,
      "lon": -159.3561,
      "region": "pacific",
      "climatePattern": "pacific-tropical",
      "tier": 2,
      "tenderPort": false,
      "pageUrl": "/ports/nawiliwili.html",
      "lastVerified": "2025-12-31"
    },
    "sydney": {
      "name": "Sydney",
      "lat": -33.8688,
      "lon": 151.2093,
      "region": "pacific",
      "climatePattern": "pacific-tropical",
      "tier": 1,
      "tenderPort": false,
      "pageUrl": "/ports/sydney.html",
      "lastVerified": "2025-12-31"
    },
    "auckland": {
      "name": "Auckland",
      "lat": -36.8485,
      "lon": 174.7633,
      "region": "pacific",
      "climatePattern": "pacific-tropical",
      "tier": 1,
      "tenderPort": false,
      "pageUrl": "/ports/auckland.html",
      "lastVerified": "2025-12-31"
    },
    "singapore": {
      "name": "Singapore",
      "lat": 1.3521,
      "lon": 103.8198,
      "region": "asia",
      "climatePattern": "asian-monsoon",
      "tier": 1,
      "tenderPort": false,
      "pageUrl": "/ports/singapore.html",
      "lastVerified": "2025-12-31"
    },
    "hong-kong": {
      "name": "Hong Kong",
      "lat": 22.3193,
      "lon": 114.1694,
      "region": "asia",
      "climatePattern": "asian-monsoon",
      "tier": 1,
      "tenderPort": false,
      "pageUrl": "/ports/hong-kong.html",
      "lastVerified": "2025-12-31"
    },
    "tokyo": {
      "name": "Tokyo",
      "lat": 35.6762,
      "lon": 139.6503,
      "region": "asia",
      "climatePattern": "asian-monsoon",
      "tier": 2,
      "tenderPort": false,
      "pageUrl": "/ports/tokyo.html",
      "lastVerified": "2025-12-31"
    },
    "boston": {
      "name": "Boston",
      "lat": 42.3601,
      "lon": -71.0589,
      "region": "new-england",
      "climatePattern": "temperate-atlantic",
      "tier": 1,
      "tenderPort": false,
      "pageUrl": "/ports/boston.html",
      "lastVerified": "2025-12-31"
    },
    "portland-maine": {
      "name": "Portland (Maine)",
      "lat": 43.6591,
      "lon": -70.2568,
      "region": "new-england",
      "climatePattern": "temperate-atlantic",
      "tier": 2,
      "tenderPort": false,
      "pageUrl": "/ports/portland-maine.html",
      "lastVerified": "2025-12-31"
    },
    "bar-harbor": {
      "name": "Bar Harbor",
      "lat": 44.3876,
      "lon": -68.2039,
      "region": "new-england",
      "climatePattern": "temperate-atlantic",
      "tier": 2,
      "tenderPort": false,
      "pageUrl": "/ports/bar-harbor.html",
      "lastVerified": "2025-12-31"
    },
    "halifax": {
      "name": "Halifax",
      "lat": 44.6488,
      "lon": -63.5752,
      "region": "new-england",
      "climatePattern": "temperate-atlantic",
      "tier": 1,
      "tenderPort": false,
      "pageUrl": "/ports/halifax.html",
      "lastVerified": "2025-12-31"
    },
    "quebec-city": {
      "name": "Quebec City",
      "lat": 46.8139,
      "lon": -71.208,
      "region": "new-england",
      "climatePattern": "temperate-atlantic",
      "tier": 1,
      "tenderPort": false,
      "pageUrl": "/ports/quebec-city.html",
      "lastVerified": "2025-12-31"
    },
    "amber-cove": {
      "name": "Amber Cove",
      "lat": 19.775,
      "lon": -70.6,
      "region": "caribbean",
      "climatePattern": "tropical-hurricane",
      "tier": 2,
      "tenderPort": false,
      "pageUrl": "/ports/amber-cove.html",
      "lastVerified": "2025-12-31"
    },
    "st-lucia": {
      "name": "St. Lucia",
      "lat": 14.0161,
      "lon": -61,
      "region": "caribbean",
      "climatePattern": "tropical-hurricane",
      "tier": 2,
      "tenderPort": false,
      "pageUrl": "/ports/st-lucia.html",
      "lastVerified": "2025-12-31"
    },
    "hubbard-glacier": {
      "name": "Hubbard Glacier",
      "lat": 60,
      "lon": -139.5,
      "region": "alaska",
      "climatePattern": "alaska",
      "tier": 2,
      "tenderPort": true,
      "pageUrl": "/ports/hubbard-glacier.html",
      "lastVerified": "2025-12-31"
    },
    "endicott-arm": {
      "name": "Endicott Arm",
      "lat": 57.72,
      "lon": -133.4,
      "region": "alaska",
      "climatePattern": "alaska",
      "tier": 2,
      "tenderPort": false,
      "pageUrl": "/ports/endicott-arm.html",
      "lastVerified": "2025-12-31"
    },
    "istanbul": {
      "name": "Istanbul",
      "lat": 41.0255,
      "lon": 28.9741,
      "region": "mediterranean",
      "climatePattern": "mediterranean",
      "tier": 2,
      "tenderPort": false,
      "pageUrl": "/ports/istanbul.html",
      "lastVerified": "2025-12-31"
    },
    "la-spezia": {
      "name": "La Spezia",
      "lat": 44.1024,
      "lon": 9.8244,
      "region": "mediterranean",
      "climatePattern": "mediterranean",
      "tier": 2,
      "tenderPort": false,
      "pageUrl": "/ports/la-spezia.html",
      "lastVerified": "2025-12-31"
    },
    "flam": {
      "name": "Flåm",
      "lat": 60.8628,
      "lon": 7.1142,
      "region": "northern-europe",
      "climatePattern": "northern-europe",
      "tier": 2,
      "tenderPort": false,
      "pageUrl": "/ports/flam.html",
      "lastVerified": "2025-12-31"
    },
    "geiranger": {
      "name": "Geiranger",
      "lat": 62.1008,
      "lon": 7.2058,
      "region": "northern-europe",
      "climatePattern": "northern-europe",
      "tier": 2,
      "tenderPort": false,
      "pageUrl": "/ports/geiranger.html",
      "lastVerified": "2025-12-31"
    },
    "cabo-san-lucas": {
      "name": "Cabo San Lucas",
      "lat": 22.8905,
      "lon": -109.9167,
      "region": "other",
      "climatePattern": "tropical-hurricane",
      "tier": 2,
      "tenderPort": false,
      "pageUrl": "/ports/cabo-san-lucas.html",
      "lastVerified": "2025-12-31"
    },
    "ensenada": {
      "name": "Ensenada",
      "lat": 31.8667,
      "lon": -116.6167,
      "region": "other",
      "climatePattern": "tropical-hurricane",
      "tier": 2,
      "tenderPort": false,
      "pageUrl": "/ports/ensenada.html",
      "lastVerified": "2025-12-31"
    },
    "mazatlan": {
      "name": "Mazatlán",
      "lat": 23.22,
      "lon": -106.42,
      "region": "other",
      "climatePattern": "tropical-hurricane",
      "tier": 2,
      "tenderPort": false,
      "pageUrl": "/ports/mazatlan.html",
      "lastVerified": "2025-12-31"
    },
    "dubai": {
      "name": "Dubai",
      "lat": 25.2697,
      "lon": 55.2708,
      "region": "other",
      "climatePattern": "tropical-hurricane",
      "tier": 2,
      "tenderPort": false,
      "pageUrl": "/ports/dubai.html",
      "lastVerified": "2025-12-31"
    },
    "abu-dhabi": {
      "name": "Abu Dhabi",
      "lat": 24.4764,
      "lon": 54.3667,
      "region": "other",
      "climatePattern": "tropical-hurricane",
      "tier": 2,
      "tenderPort": false,
      "pageUrl": "/ports/abu-dhabi.html",
      "lastVerified": "2025-12-31"
    },
    "puerto-vallarta": {
      "name": "Puerto Vallarta",
      "lat": 20.6534,
      "lon": -105.2253,
      "region": "other",
      "climatePattern": "tropical-hurricane",
      "tier": 2,
      "tenderPort": false,
      "pageUrl": "/ports/puerto-vallarta.html",
      "lastVerified": "2025-12-31"
    },
    "osaka": {
      "name": "Osaka",
      "lat": 34.6937,
      "lon": 135.5023,
      "region": "asia",
      "climatePattern": "asian-monsoon",
      "tier": 2,
      "tenderPort": false,
      "pageUrl": "/ports/osaka.html",
      "lastVerified": "2025-12-31"
    },
    "busan": {
      "name": "Busan",
      "lat": 35.1796,
      "lon": 129.0756,
      "region": "asia",
      "climatePattern": "asian-monsoon",
      "tier": 2,
      "tenderPort": false,
      "pageUrl": "/ports/busan.html",
      "lastVerified": "2025-12-31"
    },
    "phuket": {
      "name": "Phuket",
      "lat": 7.8804,
      "lon": 98.3923,
      "region": "asia",
      "climatePattern": "asian-monsoon",
      "tier": 2,
      "tenderPort": false,
      "pageUrl": "/ports/phuket.html",
      "lastVerified": "2025-12-31"
    },
    "adelaide": {
      "name": "Adelaide",
      "lat": -34.9285,
      "lon": 138.6007,
      "region": "pacific",
      "climatePattern": "pacific-tropical",
      "tier": 2,
      "tenderPort": false,
      "pageUrl": "/ports/adelaide.html",
      "lastVerified": "2025-12-31"
    },
    "cairns": {
      "name": "Cairns",
      "lat": -16.9186,
      "lon": 145.7781,
      "region": "pacific",
      "climatePattern": "pacific-tropical",
      "tier": 2,
      "tenderPort": false,
      "pageUrl": "/ports/cairns.html",
      "lastVerified": "2025-12-31"
    },
    "hobart": {
      "name": "Hobart",
      "lat": -42.8821,
      "lon": 147.3272,
      "region": "pacific",
      "climatePattern": "pacific-tropical",
      "tier": 2,
      "tenderPort": false,
      "pageUrl": "/ports/hobart.html",
      "lastVerified": "2025-12-31"
    },
    "fremantle": {
      "name": "Fremantle",
      "lat": -32.0569,
      "lon": 115.7439,
      "region": "pacific",
      "climatePattern": "pacific-tropical",
      "tier": 2,
      "tenderPort": false,
      "pageUrl": "/ports/fremantle.html",
      "lastVerified": "2025-12-31"
    },
    "bora-bora": {
      "name": "Bora Bora",
      "lat": -16.5004,
      "lon": -151.7415,
      "region": "other",
      "climatePattern": "tropical-hurricane",
      "tier": 2,
      "tenderPort": true,
      "pageUrl": "/ports/bora-bora.html",
      "lastVerified": "2025-12-31"
    },
    "papeete": {
      "name": "Papeete",
      "lat": -17.5516,
      "lon": -149.5585,
      "region": "other",
      "climatePattern": "tropical-hurricane",
      "tier": 2,
      "tenderPort": false,
      "pageUrl": "/ports/papeete.html",
      "lastVerified": "2025-12-31"
    },
    "wellington": {
      "name": "Wellington",
      "lat": -41.2866,
      "lon": 174.7756,
      "region": "pacific",
      "climatePattern": "pacific-tropical",
      "tier": 2,
      "tenderPort": false,
      "pageUrl": "/ports/wellington.html",
      "lastVerified": "2025-12-31"
    },
    "nagasaki": {
      "name": "Nagasaki",
      "lat": 32.7503,
      "lon": 129.8777,
      "region": "asia",
      "climatePattern": "asian-monsoon",
      "tier": 2,
      "tenderPort": false,
      "pageUrl": "/ports/nagasaki.html",
      "lastVerified": "2025-12-31"
    },
    "ho-chi-minh-city": {
      "name": "Ho Chi Minh City",
      "lat": 10.7769,
      "lon": 106.7009,
      "region": "asia",
      "climatePattern": "asian-monsoon",
      "tier": 2,
      "tenderPort": false,
      "pageUrl": "/ports/ho-chi-minh-city.html",
      "lastVerified": "2025-12-31"
    },
    "muscat": {
      "name": "Muscat",
      "lat": 23.588,
      "lon": 58.3829,
      "region": "other",
      "climatePattern": "tropical-hurricane",
      "tier": 2,
      "tenderPort": false,
      "pageUrl": "/ports/muscat.html",
      "lastVerified": "2025-12-31"
    },
    "salalah": {
      "name": "Salalah",
      "lat": 17.0151,
      "lon": 54.0924,
      "region": "other",
      "climatePattern": "tropical-hurricane",
      "tier": 2,
      "tenderPort": false,
      "pageUrl": "/ports/salalah.html",
      "lastVerified": "2025-12-31"
    },
    "aqaba": {
      "name": "Aqaba",
      "lat": 29.5267,
      "lon": 35.0078,
      "region": "other",
      "climatePattern": "tropical-hurricane",
      "tier": 2,
      "tenderPort": false,
      "pageUrl": "/ports/aqaba.html",
      "lastVerified": "2025-12-31"
    },
    "safaga": {
      "name": "Safaga",
      "lat": 26.7333,
      "lon": 33.9333,
      "region": "other",
      "climatePattern": "tropical-hurricane",
      "tier": 2,
      "tenderPort": false,
      "pageUrl": "/ports/safaga.html",
      "lastVerified": "2025-12-31"
    },
    "lyttelton": {
      "name": "Lyttelton",
      "lat": -43.6036,
      "lon": 172.7194,
      "region": "pacific",
      "climatePattern": "pacific-tropical",
      "tier": 2,
      "tenderPort": false,
      "pageUrl": "/ports/lyttelton.html",
      "lastVerified": "2025-12-31"
    },
    "dunedin": {
      "name": "Dunedin",
      "lat": -45.8788,
      "lon": 170.5028,
      "region": "pacific",
      "climatePattern": "pacific-tropical",
      "tier": 2,
      "tenderPort": false,
      "pageUrl": "/ports/dunedin.html",
      "lastVerified": "2025-12-31"
    },
    "fukuoka": {
      "name": "Fukuoka",
      "lat": 33.5902,
      "lon": 130.4017,
      "region": "asia",
      "climatePattern": "asian-monsoon",
      "tier": 2,
      "tenderPort": false,
      "pageUrl": "/ports/fukuoka.html",
      "lastVerified": "2025-12-31"
    },
    "penang": {
      "name": "Penang",
      "lat": 5.4164,
      "lon": 100.3327,
      "region": "asia",
      "climatePattern": "asian-monsoon",
      "tier": 2,
      "tenderPort": false,
      "pageUrl": "/ports/penang.html",
      "lastVerified": "2025-12-31"
    },
    "da-nang": {
      "name": "Da Nang",
      "lat": 16.0544,
      "lon": 108.2022,
      "region": "asia",
      "climatePattern": "asian-monsoon",
      "tier": 2,
      "tenderPort": false,
      "pageUrl": "/ports/da-nang.html",
      "lastVerified": "2025-12-31"
    },
    "cape-town": {
      "name": "Cape Town",
      "lat": -33.9249,
      "lon": 18.4241,
      "region": "other",
      "climatePattern": "tropical-hurricane",
      "tier": 2,
      "tenderPort": false,
      "pageUrl": "/ports/cape-town.html",
      "lastVerified": "2025-12-31"
    },
    "tauranga": {
      "name": "Tauranga",
      "lat": -37.6878,
      "lon": 176.1651,
      "region": "pacific",
      "climatePattern": "pacific-tropical",
      "tier": 2,
      "tenderPort": false,
      "pageUrl": "/ports/tauranga.html",
      "lastVerified": "2025-12-31"
    },
    "ajaccio": {
      "name": "Ajaccio",
      "lat": 41.9192,
      "lon": 8.7386,
      "region": "mediterranean",
      "climatePattern": "mediterranean",
      "tier": 2,
      "tenderPort": false,
      "pageUrl": "/ports/ajaccio.html",
      "lastVerified": "2025-12-31"
    },
    "alesund": {
      "name": "Ålesund",
      "lat": 62.4723,
      "lon": 6.1495,
      "region": "northern-europe",
      "climatePattern": "northern-europe",
      "tier": 2,
      "tenderPort": false,
      "pageUrl": "/ports/alesund.html",
      "lastVerified": "2025-12-31"
    },
    "amalfi": {
      "name": "Amalfi",
      "lat": 40.634,
      "lon": 14.6027,
      "region": "mediterranean",
      "climatePattern": "mediterranean",
      "tier": 2,
      "tenderPort": false,
      "pageUrl": "/ports/amalfi.html",
      "lastVerified": "2025-12-31"
    },
    "bali": {
      "name": "Bali",
      "lat": -8.4095,
      "lon": 115.1889,
      "region": "asia",
      "climatePattern": "asian-monsoon",
      "tier": 2,
      "tenderPort": false,
      "pageUrl": "/ports/bali.html",
      "lastVerified": "2025-12-31"
    },
    "baltimore": {
      "name": "Baltimore",
      "lat": 39.2856,
      "lon": -76.6078,
      "region": "other",
      "climatePattern": "tropical-hurricane",
      "tier": 2,
      "tenderPort": false,
      "pageUrl": "/ports/baltimore.html",
      "lastVerified": "2025-12-31"
    },
    "bangkok": {
      "name": "Bangkok (Laem Chabang)",
      "lat": 13.0827,
      "lon": 100.8844,
      "region": "asia",
      "climatePattern": "asian-monsoon",
      "tier": 2,
      "tenderPort": false,
      "pageUrl": "/ports/bangkok.html",
      "lastVerified": "2025-12-31"
    },
    "belfast": {
      "name": "Belfast",
      "lat": 54.5973,
      "lon": -5.9301,
      "region": "northern-europe",
      "climatePattern": "northern-europe",
      "tier": 2,
      "tenderPort": false,
      "pageUrl": "/ports/belfast.html",
      "lastVerified": "2025-12-31"
    },
    "bilbao": {
      "name": "Bilbao",
      "lat": 43.2627,
      "lon": -2.9253,
      "region": "northern-europe",
      "climatePattern": "northern-europe",
      "tier": 2,
      "tenderPort": false,
      "pageUrl": "/ports/bilbao.html",
      "lastVerified": "2025-12-31"
    },
    "bordeaux": {
      "name": "Bordeaux",
      "lat": 44.8378,
      "lon": -0.5792,
      "region": "other",
      "climatePattern": "tropical-hurricane",
      "tier": 2,
      "tenderPort": false,
      "pageUrl": "/ports/bordeaux.html",
      "lastVerified": "2025-12-31"
    },
    "brisbane": {
      "name": "Brisbane",
      "lat": -27.4698,
      "lon": 153.0251,
      "region": "pacific",
      "climatePattern": "pacific-tropical",
      "tier": 2,
      "tenderPort": false,
      "pageUrl": "/ports/brisbane.html",
      "lastVerified": "2025-12-31"
    },
    "cagliari": {
      "name": "Cagliari",
      "lat": 39.2238,
      "lon": 9.1217,
      "region": "mediterranean",
      "climatePattern": "mediterranean",
      "tier": 2,
      "tenderPort": false,
      "pageUrl": "/ports/cagliari.html",
      "lastVerified": "2025-12-31"
    },
    "cape-liberty": {
      "name": "Cape Liberty",
      "lat": 40.6689,
      "lon": -74.0445,
      "region": "other",
      "climatePattern": "tropical-hurricane",
      "tier": 2,
      "tenderPort": false,
      "pageUrl": "/ports/cape-liberty.html",
      "lastVerified": "2025-12-31"
    },
    "cartagena-spain": {
      "name": "Cartagena (Spain)",
      "lat": 37.6,
      "lon": -0.9833,
      "region": "mediterranean",
      "climatePattern": "mediterranean",
      "tier": 2,
      "tenderPort": false,
      "pageUrl": "/ports/cartagena-spain.html",
      "lastVerified": "2025-12-31"
    },
    "casablanca": {
      "name": "Casablanca",
      "lat": 33.5731,
      "lon": -7.5898,
      "region": "other",
      "climatePattern": "tropical-hurricane",
      "tier": 2,
      "tenderPort": false,
      "pageUrl": "/ports/casablanca.html",
      "lastVerified": "2025-12-31"
    },
    "charlottetown": {
      "name": "Charlottetown",
      "lat": 46.2382,
      "lon": -63.1311,
      "region": "new-england",
      "climatePattern": "temperate-atlantic",
      "tier": 2,
      "tenderPort": false,
      "pageUrl": "/ports/charlottetown.html",
      "lastVerified": "2025-12-31"
    },
    "cherbourg": {
      "name": "Cherbourg",
      "lat": 49.6337,
      "lon": -1.6221,
      "region": "northern-europe",
      "climatePattern": "northern-europe",
      "tier": 2,
      "tenderPort": false,
      "pageUrl": "/ports/cherbourg.html",
      "lastVerified": "2025-12-31"
    },
    "corfu": {
      "name": "Corfu",
      "lat": 39.6243,
      "lon": 19.9217,
      "region": "mediterranean",
      "climatePattern": "mediterranean",
      "tier": 2,
      "tenderPort": false,
      "pageUrl": "/ports/corfu.html",
      "lastVerified": "2025-12-31"
    },
    "cork": {
      "name": "Cork (Cobh)",
      "lat": 51.8503,
      "lon": -8.2943,
      "region": "northern-europe",
      "climatePattern": "northern-europe",
      "tier": 2,
      "tenderPort": false,
      "pageUrl": "/ports/cork.html",
      "lastVerified": "2025-12-31"
    },
    "galveston": {
      "name": "Galveston",
      "lat": 29.3013,
      "lon": -94.7977,
      "region": "other",
      "climatePattern": "tropical-hurricane",
      "tier": 2,
      "tenderPort": false,
      "pageUrl": "/ports/galveston.html",
      "lastVerified": "2025-12-31"
    },
    "gdansk": {
      "name": "Gdańsk",
      "lat": 54.352,
      "lon": 18.6466,
      "region": "northern-europe",
      "climatePattern": "northern-europe",
      "tier": 2,
      "tenderPort": false,
      "pageUrl": "/ports/gdansk.html",
      "lastVerified": "2025-12-31"
    },
    "gothenburg": {
      "name": "Gothenburg",
      "lat": 57.7089,
      "lon": 11.9746,
      "region": "northern-europe",
      "climatePattern": "northern-europe",
      "tier": 2,
      "tenderPort": false,
      "pageUrl": "/ports/gothenburg.html",
      "lastVerified": "2025-12-31"
    },
    "haines": {
      "name": "Haines",
      "lat": 59.2358,
      "lon": -135.4457,
      "region": "alaska",
      "climatePattern": "alaska",
      "tier": 2,
      "tenderPort": false,
      "pageUrl": "/ports/haines.html",
      "lastVerified": "2025-12-31"
    },
    "heraklion": {
      "name": "Heraklion",
      "lat": 35.3387,
      "lon": 25.1442,
      "region": "mediterranean",
      "climatePattern": "mediterranean",
      "tier": 2,
      "tenderPort": false,
      "pageUrl": "/ports/heraklion.html",
      "lastVerified": "2025-12-31"
    },
    "holyhead": {
      "name": "Holyhead",
      "lat": 53.3094,
      "lon": -4.6325,
      "region": "northern-europe",
      "climatePattern": "northern-europe",
      "tier": 2,
      "tenderPort": false,
      "pageUrl": "/ports/holyhead.html",
      "lastVerified": "2025-12-31"
    },
    "honfleur": {
      "name": "Honfleur",
      "lat": 49.4181,
      "lon": 0.2331,
      "region": "northern-europe",
      "climatePattern": "northern-europe",
      "tier": 2,
      "tenderPort": false,
      "pageUrl": "/ports/honfleur.html",
      "lastVerified": "2025-12-31"
    },
    "invergordon": {
      "name": "Invergordon",
      "lat": 57.6889,
      "lon": -4.1697,
      "region": "northern-europe",
      "climatePattern": "northern-europe",
      "tier": 2,
      "tenderPort": false,
      "pageUrl": "/ports/invergordon.html",
      "lastVerified": "2025-12-31"
    },
    "kiel": {
      "name": "Kiel",
      "lat": 54.3233,
      "lon": 10.1228,
      "region": "northern-europe",
      "climatePattern": "northern-europe",
      "tier": 2,
      "tenderPort": false,
      "pageUrl": "/ports/kiel.html",
      "lastVerified": "2025-12-31"
    },
    "kirkwall": {
      "name": "Kirkwall",
      "lat": 58.9809,
      "lon": -2.9606,
      "region": "northern-europe",
      "climatePattern": "northern-europe",
      "tier": 2,
      "tenderPort": false,
      "pageUrl": "/ports/kirkwall.html",
      "lastVerified": "2025-12-31"
    },
    "koper": {
      "name": "Koper",
      "lat": 45.5469,
      "lon": 13.7294,
      "region": "mediterranean",
      "climatePattern": "mediterranean",
      "tier": 2,
      "tenderPort": false,
      "pageUrl": "/ports/koper.html",
      "lastVerified": "2025-12-31"
    },
    "la-coruna": {
      "name": "La Coruña",
      "lat": 43.3623,
      "lon": -8.4115,
      "region": "other",
      "climatePattern": "tropical-hurricane",
      "tier": 2,
      "tenderPort": false,
      "pageUrl": "/ports/la-coruna.html",
      "lastVerified": "2025-12-31"
    },
    "le-havre": {
      "name": "Le Havre",
      "lat": 49.4944,
      "lon": 0.1079,
      "region": "northern-europe",
      "climatePattern": "northern-europe",
      "tier": 2,
      "tenderPort": false,
      "pageUrl": "/ports/le-havre.html",
      "lastVerified": "2025-12-31"
    },
    "lerwick": {
      "name": "Lerwick",
      "lat": 60.1539,
      "lon": -1.145,
      "region": "northern-europe",
      "climatePattern": "northern-europe",
      "tier": 2,
      "tenderPort": false,
      "pageUrl": "/ports/lerwick.html",
      "lastVerified": "2025-12-31"
    },
    "liverpool": {
      "name": "Liverpool",
      "lat": 53.4084,
      "lon": -2.9916,
      "region": "northern-europe",
      "climatePattern": "northern-europe",
      "tier": 2,
      "tenderPort": false,
      "pageUrl": "/ports/liverpool.html",
      "lastVerified": "2025-12-31"
    },
    "los-angeles": {
      "name": "Los Angeles",
      "lat": 33.7361,
      "lon": -118.2922,
      "region": "other",
      "climatePattern": "tropical-hurricane",
      "tier": 2,
      "tenderPort": false,
      "pageUrl": "/ports/los-angeles.html",
      "lastVerified": "2025-12-31"
    },
    "melbourne": {
      "name": "Melbourne",
      "lat": -37.8136,
      "lon": 144.9631,
      "region": "pacific",
      "climatePattern": "pacific-tropical",
      "tier": 2,
      "tenderPort": false,
      "pageUrl": "/ports/melbourne.html",
      "lastVerified": "2025-12-31"
    },
    "messina": {
      "name": "Messina",
      "lat": 38.1938,
      "lon": 15.554,
      "region": "mediterranean",
      "climatePattern": "mediterranean",
      "tier": 2,
      "tenderPort": false,
      "pageUrl": "/ports/messina.html",
      "lastVerified": "2025-12-31"
    },
    "mobile": {
      "name": "Mobile",
      "lat": 30.6954,
      "lon": -88.0399,
      "region": "other",
      "climatePattern": "tropical-hurricane",
      "tier": 2,
      "tenderPort": false,
      "pageUrl": "/ports/mobile.html",
      "lastVerified": "2025-12-31"
    },
    "new-orleans": {
      "name": "New Orleans",
      "lat": 29.9511,
      "lon": -90.0715,
      "region": "other",
      "climatePattern": "tropical-hurricane",
      "tier": 2,
      "tenderPort": false,
      "pageUrl": "/ports/new-orleans.html",
      "lastVerified": "2025-12-31"
    },
    "newcastle": {
      "name": "Newcastle",
      "lat": 54.9783,
      "lon": -1.6178,
      "region": "northern-europe",
      "climatePattern": "northern-europe",
      "tier": 2,
      "tenderPort": false,
      "pageUrl": "/ports/newcastle.html",
      "lastVerified": "2025-12-31"
    },
    "newport": {
      "name": "Newport",
      "lat": 41.4901,
      "lon": -71.3128,
      "region": "new-england",
      "climatePattern": "temperate-atlantic",
      "tier": 2,
      "tenderPort": false,
      "pageUrl": "/ports/newport.html",
      "lastVerified": "2025-12-31"
    },
    "norwegian-fjords": {
      "name": "Norwegian Fjords",
      "lat": 61.5,
      "lon": 6.5,
      "region": "northern-europe",
      "climatePattern": "northern-europe",
      "tier": 2,
      "tenderPort": false,
      "pageUrl": "/ports/norwegian-fjords.html",
      "lastVerified": "2025-12-31"
    },
    "panama-canal": {
      "name": "Panama Canal",
      "lat": 9.08,
      "lon": -79.68,
      "region": "other",
      "climatePattern": "tropical-hurricane",
      "tier": 2,
      "tenderPort": false,
      "pageUrl": "/ports/panama-canal.html",
      "lastVerified": "2025-12-31"
    },
    "port-canaveral": {
      "name": "Port Canaveral",
      "lat": 28.4089,
      "lon": -80.6301,
      "region": "caribbean",
      "climatePattern": "tropical-hurricane",
      "tier": 2,
      "tenderPort": false,
      "pageUrl": "/ports/port-canaveral.html",
      "lastVerified": "2025-12-31"
    },
    "port-everglades": {
      "name": "Port Everglades",
      "lat": 26.0893,
      "lon": -80.1117,
      "region": "caribbean",
      "climatePattern": "tropical-hurricane",
      "tier": 2,
      "tenderPort": false,
      "pageUrl": "/ports/port-everglades.html",
      "lastVerified": "2025-12-31"
    },
    "port-miami": {
      "name": "Port Miami",
      "lat": 25.7745,
      "lon": -80.1697,
      "region": "caribbean",
      "climatePattern": "tropical-hurricane",
      "tier": 2,
      "tenderPort": false,
      "pageUrl": "/ports/port-miami.html",
      "lastVerified": "2025-12-31"
    },
    "portland": {
      "name": "Portland (Oregon)",
      "lat": 45.5152,
      "lon": -122.6784,
      "region": "other",
      "climatePattern": "tropical-hurricane",
      "tier": 2,
      "tenderPort": false,
      "pageUrl": "/ports/portland.html",
      "lastVerified": "2025-12-31"
    },
    "porto": {
      "name": "Porto",
      "lat": 41.1579,
      "lon": -8.6291,
      "region": "other",
      "climatePattern": "tropical-hurricane",
      "tier": 2,
      "tenderPort": false,
      "pageUrl": "/ports/porto.html",
      "lastVerified": "2025-12-31"
    },
    "ravenna": {
      "name": "Ravenna",
      "lat": 44.4184,
      "lon": 12.2035,
      "region": "mediterranean",
      "climatePattern": "mediterranean",
      "tier": 2,
      "tenderPort": false,
      "pageUrl": "/ports/ravenna.html",
      "lastVerified": "2025-12-31"
    },
    "riga": {
      "name": "Riga",
      "lat": 56.9496,
      "lon": 24.1052,
      "region": "northern-europe",
      "climatePattern": "northern-europe",
      "tier": 2,
      "tenderPort": false,
      "pageUrl": "/ports/riga.html",
      "lastVerified": "2025-12-31"
    },
    "saguenay": {
      "name": "Saguenay",
      "lat": 48.4279,
      "lon": -71.069,
      "region": "new-england",
      "climatePattern": "temperate-atlantic",
      "tier": 2,
      "tenderPort": false,
      "pageUrl": "/ports/saguenay.html",
      "lastVerified": "2025-12-31"
    },
    "saint-john": {
      "name": "Saint John",
      "lat": 45.2733,
      "lon": -66.0633,
      "region": "new-england",
      "climatePattern": "temperate-atlantic",
      "tier": 2,
      "tenderPort": false,
      "pageUrl": "/ports/saint-john.html",
      "lastVerified": "2025-12-31"
    },
    "san-diego": {
      "name": "San Diego",
      "lat": 32.7157,
      "lon": -117.1611,
      "region": "other",
      "climatePattern": "tropical-hurricane",
      "tier": 2,
      "tenderPort": false,
      "pageUrl": "/ports/san-diego.html",
      "lastVerified": "2025-12-31"
    },
    "scotland": {
      "name": "Scotland",
      "lat": 56.4907,
      "lon": -4.2026,
      "region": "northern-europe",
      "climatePattern": "northern-europe",
      "tier": 2,
      "tenderPort": false,
      "pageUrl": "/ports/scotland.html",
      "lastVerified": "2025-12-31"
    },
    "seattle": {
      "name": "Seattle",
      "lat": 47.6062,
      "lon": -122.3321,
      "region": "other",
      "climatePattern": "tropical-hurricane",
      "tier": 2,
      "tenderPort": false,
      "pageUrl": "/ports/seattle.html",
      "lastVerified": "2025-12-31"
    },
    "shanghai": {
      "name": "Shanghai",
      "lat": 31.2304,
      "lon": 121.4737,
      "region": "asia",
      "climatePattern": "asian-monsoon",
      "tier": 2,
      "tenderPort": false,
      "pageUrl": "/ports/shanghai.html",
      "lastVerified": "2025-12-31"
    },
    "south-pacific": {
      "name": "South Pacific",
      "lat": -17,
      "lon": -149,
      "region": "other",
      "climatePattern": "tropical-hurricane",
      "tier": 2,
      "tenderPort": false,
      "pageUrl": "/ports/south-pacific.html",
      "lastVerified": "2025-12-31"
    },
    "split": {
      "name": "Split",
      "lat": 43.5081,
      "lon": 16.4402,
      "region": "mediterranean",
      "climatePattern": "mediterranean",
      "tier": 2,
      "tenderPort": false,
      "pageUrl": "/ports/split.html",
      "lastVerified": "2025-12-31"
    },
    "stavanger": {
      "name": "Stavanger",
      "lat": 58.97,
      "lon": 5.7331,
      "region": "northern-europe",
      "climatePattern": "northern-europe",
      "tier": 2,
      "tenderPort": false,
      "pageUrl": "/ports/stavanger.html",
      "lastVerified": "2025-12-31"
    },
    "sydney-ns": {
      "name": "Sydney (Nova Scotia)",
      "lat": 46.1367,
      "lon": -60.1942,
      "region": "new-england",
      "climatePattern": "temperate-atlantic",
      "tier": 2,
      "tenderPort": false,
      "pageUrl": "/ports/sydney-ns.html",
      "lastVerified": "2025-12-31"
    },
    "tampa": {
      "name": "Tampa",
      "lat": 27.9506,
      "lon": -82.4572,
      "region": "other",
      "climatePattern": "tropical-hurricane",
      "tier": 2,
      "tenderPort": false,
      "pageUrl": "/ports/tampa.html",
      "lastVerified": "2025-12-31"
    },
    "tangier": {
      "name": "Tangier",
      "lat": 35.7595,
      "lon": -5.834,
      "region": "other",
      "climatePattern": "tropical-hurricane",
      "tier": 2,
      "tenderPort": false,
      "pageUrl": "/ports/tangier.html",
      "lastVerified": "2025-12-31"
    },
    "taormina": {
      "name": "Taormina",
      "lat": 37.8516,
      "lon": 15.2853,
      "region": "mediterranean",
      "climatePattern": "mediterranean",
      "tier": 2,
      "tenderPort": false,
      "pageUrl": "/ports/taormina.html",
      "lastVerified": "2025-12-31"
    },
    "tracy-arm": {
      "name": "Tracy Arm",
      "lat": 57.85,
      "lon": -133.6167,
      "region": "alaska",
      "climatePattern": "alaska",
      "tier": 2,
      "tenderPort": false,
      "pageUrl": "/ports/tracy-arm.html",
      "lastVerified": "2025-12-31"
    },
    "trieste": {
      "name": "Trieste",
      "lat": 45.6495,
      "lon": 13.7768,
      "region": "mediterranean",
      "climatePattern": "mediterranean",
      "tier": 2,
      "tenderPort": false,
      "pageUrl": "/ports/trieste.html",
      "lastVerified": "2025-12-31"
    },
    "tromso": {
      "name": "Tromsø",
      "lat": 69.6496,
      "lon": 18.956,
      "region": "northern-europe",
      "climatePattern": "northern-europe",
      "tier": 2,
      "tenderPort": false,
      "pageUrl": "/ports/tromso.html",
      "lastVerified": "2025-12-31"
    },
    "tunis": {
      "name": "Tunis",
      "lat": 36.819,
      "lon": 10.1658,
      "region": "mediterranean",
      "climatePattern": "mediterranean",
      "tier": 2,
      "tenderPort": false,
      "pageUrl": "/ports/tunis.html",
      "lastVerified": "2025-12-31"
    },
    "valletta": {
      "name": "Valletta",
      "lat": 35.8989,
      "lon": 14.5146,
      "region": "mediterranean",
      "climatePattern": "mediterranean",
      "tier": 2,
      "tenderPort": false,
      "pageUrl": "/ports/valletta.html",
      "lastVerified": "2025-12-31"
    },
    "vancouver": {
      "name": "Vancouver",
      "lat": 49.2827,
      "lon": -123.1207,
      "region": "other",
      "climatePattern": "tropical-hurricane",
      "tier": 2,
      "tenderPort": false,
      "pageUrl": "/ports/vancouver.html",
      "lastVerified": "2025-12-31"
    },
    "vigo": {
      "name": "Vigo",
      "lat": 42.2406,
      "lon": -8.7207,
      "region": "other",
      "climatePattern": "tropical-hurricane",
      "tier": 2,
      "tenderPort": false,
      "pageUrl": "/ports/vigo.html",
      "lastVerified": "2025-12-31"
    },
    "warnemunde": {
      "name": "Warnemünde",
      "lat": 54.1781,
      "lon": 12.0853,
      "region": "northern-europe",
      "climatePattern": "northern-europe",
      "tier": 2,
      "tenderPort": false,
      "pageUrl": "/ports/warnemunde.html",
      "lastVerified": "2025-12-31"
    },
    "waterford": {
      "name": "Waterford",
      "lat": 52.2593,
      "lon": -7.1101,
      "region": "northern-europe",
      "climatePattern": "northern-europe",
      "tier": 2,
      "tenderPort": false,
      "pageUrl": "/ports/waterford.html",
      "lastVerified": "2025-12-31"
    },
    "zadar": {
      "name": "Zadar",
      "lat": 44.1194,
      "lon": 15.2314,
      "region": "mediterranean",
      "climatePattern": "mediterranean",
      "tier": 2,
      "tenderPort": false,
      "pageUrl": "/ports/zadar.html",
      "lastVerified": "2025-12-31"
    },
    "zeebrugge": {
      "name": "Zeebrugge",
      "lat": 51.3294,
      "lon": 3.1753,
      "region": "northern-europe",
      "climatePattern": "northern-europe",
      "tier": 2,
      "tenderPort": false,
      "pageUrl": "/ports/zeebrugge.html",
      "lastVerified": "2025-12-31"
    },
    "rio-de-janeiro": {
      "name": "Rio de Janeiro",
      "lat": -22.9068,
      "lon": -43.1729,
      "region": "other",
      "climatePattern": "tropical-hurricane",
      "tier": 2,
      "tenderPort": false,
      "pageUrl": "/ports/rio-de-janeiro.html",
      "lastVerified": "2025-12-31"
    },
    "buenos-aires": {
      "name": "Buenos Aires",
      "lat": -34.6037,
      "lon": -58.3816,
      "region": "other",
      "climatePattern": "tropical-hurricane",
      "tier": 2,
      "tenderPort": false,
      "pageUrl": "/ports/buenos-aires.html",
      "lastVerified": "2025-12-31"
    },
    "funchal": {
      "name": "Funchal",
      "lat": 32.6669,
      "lon": -16.9241,
      "region": "other",
      "climatePattern": "tropical-hurricane",
      "tier": 2,
      "tenderPort": false,
      "pageUrl": "/ports/funchal.html",
      "lastVerified": "2025-12-31"
    },
    "tenerife": {
      "name": "Tenerife",
      "lat": 28.4636,
      "lon": -16.2518,
      "region": "other",
      "climatePattern": "tropical-hurricane",
      "tier": 2,
      "tenderPort": false,
      "pageUrl": "/ports/tenerife.html",
      "lastVerified": "2025-12-31"
    },
    "ushuaia": {
      "name": "Ushuaia",
      "lat": -54.8019,
      "lon": -68.303,
      "region": "other",
      "climatePattern": "tropical-hurricane",
      "tier": 2,
      "tenderPort": false,
      "pageUrl": "/ports/ushuaia.html",
      "lastVerified": "2025-12-31"
    },
    "montevideo": {
      "name": "Montevideo",
      "lat": -34.9011,
      "lon": -56.1645,
      "region": "other",
      "climatePattern": "tropical-hurricane",
      "tier": 2,
      "tenderPort": false,
      "pageUrl": "/ports/montevideo.html",
      "lastVerified": "2025-12-31"
    },
    "valparaiso": {
      "name": "Valparaíso",
      "lat": -33.0472,
      "lon": -71.6127,
      "region": "other",
      "climatePattern": "tropical-hurricane",
      "tier": 2,
      "tenderPort": false,
      "pageUrl": "/ports/valparaiso.html",
      "lastVerified": "2025-12-31"
    },
    "edinburgh": {
      "name": "Edinburgh",
      "lat": 55.9533,
      "lon": -3.1883,
      "region": "northern-europe",
      "climatePattern": "northern-europe",
      "tier": 2,
      "tenderPort": false,
      "pageUrl": "/ports/edinburgh.html",
      "lastVerified": "2025-12-31"
    },
    "greenock": {
      "name": "Greenock",
      "lat": 55.9496,
      "lon": -4.764,
      "region": "northern-europe",
      "climatePattern": "northern-europe",
      "tier": 2,
      "tenderPort": false,
      "pageUrl": "/ports/greenock.html",
      "lastVerified": "2025-12-31"
    },
    "montego-bay": {
      "name": "Montego Bay",
      "lat": 18.4762,
      "lon": -77.8939,
      "region": "caribbean",
      "climatePattern": "tropical-hurricane",
      "tier": 2,
      "tenderPort": false,
      "pageUrl": "/ports/montego-bay.html",
      "lastVerified": "2025-12-31"
    },
    "seychelles": {
      "name": "Seychelles (Victoria)",
      "lat": -4.6191,
      "lon": 55.4513,
      "region": "other",
      "climatePattern": "tropical-hurricane",
      "tier": 2,
      "tenderPort": false,
      "pageUrl": "/ports/seychelles.html",
      "lastVerified": "2025-12-31"
    },
    "mauritius": {
      "name": "Mauritius (Port Louis)",
      "lat": -20.1609,
      "lon": 57.5012,
      "region": "other",
      "climatePattern": "tropical-hurricane",
      "tier": 2,
      "tenderPort": false,
      "pageUrl": "/ports/mauritius.html",
      "lastVerified": "2025-12-31"
    },
    "fiji": {
      "name": "Fiji (Lautoka)",
      "lat": -17.6163,
      "lon": 177.4509,
      "region": "other",
      "climatePattern": "tropical-hurricane",
      "tier": 2,
      "tenderPort": false,
      "pageUrl": "/ports/fiji.html",
      "lastVerified": "2025-12-31"
    },
    "gran-canaria": {
      "name": "Gran Canaria",
      "lat": 28.1235,
      "lon": -15.4363,
      "region": "other",
      "climatePattern": "tropical-hurricane",
      "tier": 2,
      "tenderPort": false,
      "pageUrl": "/ports/gran-canaria.html",
      "lastVerified": "2025-12-31"
    },
    "lanzarote": {
      "name": "Lanzarote",
      "lat": 28.963,
      "lon": -13.5477,
      "region": "other",
      "climatePattern": "tropical-hurricane",
      "tier": 2,
      "tenderPort": false,
      "pageUrl": "/ports/lanzarote.html",
      "lastVerified": "2025-12-31"
    },
    "ponta-delgada": {
      "name": "Ponta Delgada",
      "lat": 37.7394,
      "lon": -25.6687,
      "region": "other",
      "climatePattern": "tropical-hurricane",
      "tier": 2,
      "tenderPort": false,
      "pageUrl": "/ports/ponta-delgada.html",
      "lastVerified": "2025-12-31"
    },
    "ocho-rios": {
      "name": "Ocho Rios",
      "lat": 18.4074,
      "lon": -77.105,
      "region": "caribbean",
      "climatePattern": "tropical-hurricane",
      "tier": 2,
      "tenderPort": false,
      "pageUrl": "/ports/ocho-rios.html",
      "lastVerified": "2025-12-31"
    },
    "st-barts": {
      "name": "St. Barts",
      "lat": 17.8958,
      "lon": -62.8508,
      "region": "caribbean",
      "climatePattern": "tropical-hurricane",
      "tier": 2,
      "tenderPort": false,
      "pageUrl": "/ports/st-barts.html",
      "lastVerified": "2025-12-31"
    },
    "acapulco": {
      "name": "Acapulco",
      "lat": 16.8531,
      "lon": -99.8237,
      "region": "other",
      "climatePattern": "tropical-hurricane",
      "tier": 2,
      "tenderPort": false,
      "pageUrl": "/ports/acapulco.html",
      "lastVerified": "2025-12-31"
    },
    "colon": {
      "name": "Colón",
      "lat": 9.3547,
      "lon": -79.9004,
      "region": "other",
      "climatePattern": "tropical-hurricane",
      "tier": 2,
      "tenderPort": false,
      "pageUrl": "/ports/colon.html",
      "lastVerified": "2025-12-31"
    },
    "san-francisco": {
      "name": "San Francisco",
      "lat": 37.803,
      "lon": -122.3965,
      "region": "other",
      "climatePattern": "tropical-hurricane",
      "tier": 2,
      "tenderPort": false,
      "pageUrl": "/ports/san-francisco.html",
      "lastVerified": "2025-12-31"
    },
    "portofino": {
      "name": "Portofino",
      "lat": 44.3036,
      "lon": 9.2096,
      "region": "mediterranean",
      "climatePattern": "mediterranean",
      "tier": 2,
      "tenderPort": true,
      "pageUrl": "/ports/portofino.html",
      "lastVerified": "2025-12-31"
    },
    "capri": {
      "name": "Capri",
      "lat": 40.5507,
      "lon": 14.2224,
      "region": "mediterranean",
      "climatePattern": "mediterranean",
      "tier": 2,
      "tenderPort": true,
      "pageUrl": "/ports/capri.html",
      "lastVerified": "2025-12-31"
    },
    "haifa": {
      "name": "Haifa",
      "lat": 32.8191,
      "lon": 34.9983,
      "region": "mediterranean",
      "climatePattern": "mediterranean",
      "tier": 2,
      "tenderPort": false,
      "pageUrl": "/ports/haifa.html",
      "lastVerified": "2025-12-31"
    },
    "limassol": {
      "name": "Limassol",
      "lat": 34.6786,
      "lon": 33.0413,
      "region": "mediterranean",
      "climatePattern": "mediterranean",
      "tier": 2,
      "tenderPort": false,
      "pageUrl": "/ports/limassol.html",
      "lastVerified": "2025-12-31"
    },
    "ha-long-bay": {
      "name": "Ha Long Bay",
      "lat": 20.9101,
      "lon": 107.1839,
      "region": "asia",
      "climatePattern": "asian-monsoon",
      "tier": 2,
      "tenderPort": false,
      "pageUrl": "/ports/ha-long-bay.html",
      "lastVerified": "2025-12-31"
    },
    "koh-samui": {
      "name": "Koh Samui",
      "lat": 9.512,
      "lon": 99.9427,
      "region": "asia",
      "climatePattern": "asian-monsoon",
      "tier": 2,
      "tenderPort": false,
      "pageUrl": "/ports/koh-samui.html",
      "lastVerified": "2025-12-31"
    },
    "maldives": {
      "name": "Maldives (Malé)",
      "lat": 4.1755,
      "lon": 73.5093,
      "region": "other",
      "climatePattern": "tropical-hurricane",
      "tier": 2,
      "tenderPort": false,
      "pageUrl": "/ports/maldives.html",
      "lastVerified": "2025-12-31"
    },
    "zanzibar": {
      "name": "Zanzibar",
      "lat": -6.1622,
      "lon": 39.1921,
      "region": "other",
      "climatePattern": "tropical-hurricane",
      "tier": 2,
      "tenderPort": false,
      "pageUrl": "/ports/zanzibar.html",
      "lastVerified": "2025-12-31"
    },
    "puerto-madryn": {
      "name": "Puerto Madryn",
      "lat": -42.7692,
      "lon": -65.0385,
      "region": "other",
      "climatePattern": "tropical-hurricane",
      "tier": 2,
      "tenderPort": false,
      "pageUrl": "/ports/puerto-madryn.html",
      "lastVerified": "2025-12-31"
    },
    "sorrento": {
      "name": "Sorrento",
      "lat": 40.6263,
      "lon": 14.3758,
      "region": "mediterranean",
      "climatePattern": "mediterranean",
      "tier": 2,
      "tenderPort": false,
      "pageUrl": "/ports/sorrento.html",
      "lastVerified": "2025-12-31"
    },
    "komodo": {
      "name": "Komodo",
      "lat": -8.55,
      "lon": 119.4833,
      "region": "asia",
      "climatePattern": "asian-monsoon",
      "tier": 2,
      "tenderPort": false,
      "pageUrl": "/ports/komodo.html",
      "lastVerified": "2025-12-31"
    },
    "moorea": {
      "name": "Moorea",
      "lat": -17.5388,
      "lon": -149.8295,
      "region": "other",
      "climatePattern": "tropical-hurricane",
      "tier": 2,
      "tenderPort": true,
      "pageUrl": "/ports/moorea.html",
      "lastVerified": "2025-12-31"
    },
    "colombo": {
      "name": "Colombo",
      "lat": 6.9271,
      "lon": 79.8612,
      "region": "asia",
      "climatePattern": "asian-monsoon",
      "tier": 2,
      "tenderPort": false,
      "pageUrl": "/ports/colombo.html",
      "lastVerified": "2025-12-31"
    },
    "doha": {
      "name": "Doha",
      "lat": 25.2854,
      "lon": 51.531,
      "region": "other",
      "climatePattern": "tropical-hurricane",
      "tier": 2,
      "tenderPort": false,
      "pageUrl": "/ports/doha.html",
      "lastVerified": "2025-12-31"
    },
    "salvador": {
      "name": "Salvador",
      "lat": -12.9714,
      "lon": -38.5014,
      "region": "other",
      "climatePattern": "tropical-hurricane",
      "tier": 2,
      "tenderPort": false,
      "pageUrl": "/ports/salvador.html",
      "lastVerified": "2025-12-31"
    },
    "hvar": {
      "name": "Hvar",
      "lat": 43.1729,
      "lon": 16.4411,
      "region": "mediterranean",
      "climatePattern": "mediterranean",
      "tier": 2,
      "tenderPort": false,
      "pageUrl": "/ports/hvar.html",
      "lastVerified": "2025-12-31"
    },
    "akureyri": {
      "name": "Akureyri",
      "lat": 65.6885,
      "lon": -18.0878,
      "region": "northern-europe",
      "climatePattern": "northern-europe",
      "tier": 2,
      "tenderPort": false,
      "pageUrl": "/ports/akureyri.html",
      "lastVerified": "2025-12-31"
    },
    "falkland-islands": {
      "name": "Falkland Islands (Stanley)",
      "lat": -51.692,
      "lon": -57.857,
      "region": "other",
      "climatePattern": "tropical-hurricane",
      "tier": 2,
      "tenderPort": false,
      "pageUrl": "/ports/falkland-islands.html",
      "lastVerified": "2025-12-31"
    },
    "kobe": {
      "name": "Kobe",
      "lat": 34.6901,
      "lon": 135.1956,
      "region": "asia",
      "climatePattern": "asian-monsoon",
      "tier": 2,
      "tenderPort": false,
      "pageUrl": "/ports/kobe.html",
      "lastVerified": "2025-12-31"
    },
    "nha-trang": {
      "name": "Nha Trang",
      "lat": 12.2388,
      "lon": 109.1967,
      "region": "asia",
      "climatePattern": "asian-monsoon",
      "tier": 2,
      "tenderPort": false,
      "pageUrl": "/ports/nha-trang.html",
      "lastVerified": "2025-12-31"
    },
    "bodrum": {
      "name": "Bodrum",
      "lat": 37.0343,
      "lon": 27.4305,
      "region": "mediterranean",
      "climatePattern": "mediterranean",
      "tier": 2,
      "tenderPort": false,
      "pageUrl": "/ports/bodrum.html",
      "lastVerified": "2025-12-31"
    },
    "vanuatu": {
      "name": "Port Vila (Vanuatu)",
      "lat": -17.7333,
      "lon": 168.3167,
      "region": "other",
      "climatePattern": "tropical-hurricane",
      "tier": 2,
      "tenderPort": false,
      "pageUrl": "/ports/vanuatu.html",
      "lastVerified": "2025-12-31"
    },
    "jeju": {
      "name": "Jeju Island",
      "lat": 33.4996,
      "lon": 126.5312,
      "region": "asia",
      "climatePattern": "asian-monsoon",
      "tier": 2,
      "tenderPort": false,
      "pageUrl": "/ports/jeju.html",
      "lastVerified": "2025-12-31"
    },
    "noumea": {
      "name": "Noumea",
      "lat": -22.2758,
      "lon": 166.458,
      "region": "other",
      "climatePattern": "tropical-hurricane",
      "tier": 2,
      "tenderPort": false,
      "pageUrl": "/ports/noumea.html",
      "lastVerified": "2025-12-31"
    },
    "apia": {
      "name": "Apia",
      "lat": -13.8333,
      "lon": -171.75,
      "region": "other",
      "climatePattern": "tropical-hurricane",
      "tier": 2,
      "tenderPort": false,
      "pageUrl": "/ports/apia.html",
      "lastVerified": "2025-12-31"
    },
    "tonga": {
      "name": "Nuku'alofa (Tonga)",
      "lat": -21.2114,
      "lon": -175.1998,
      "region": "other",
      "climatePattern": "tropical-hurricane",
      "tier": 2,
      "tenderPort": false,
      "pageUrl": "/ports/tonga.html",
      "lastVerified": "2025-12-31"
    },
    "manaus": {
      "name": "Manaus",
      "lat": -3.119,
      "lon": -60.0217,
      "region": "other",
      "climatePattern": "tropical-hurricane",
      "tier": 2,
      "tenderPort": false,
      "pageUrl": "/ports/manaus.html",
      "lastVerified": "2025-12-31"
    },
    "goa": {
      "name": "Goa (Mormugao)",
      "lat": 15.4023,
      "lon": 73.8012,
      "region": "asia",
      "climatePattern": "asian-monsoon",
      "tier": 2,
      "tenderPort": false,
      "pageUrl": "/ports/goa.html",
      "lastVerified": "2025-12-31"
    },
    "hiroshima": {
      "name": "Hiroshima",
      "lat": 34.3853,
      "lon": 132.4553,
      "region": "asia",
      "climatePattern": "asian-monsoon",
      "tier": 2,
      "tenderPort": false,
      "pageUrl": "/ports/hiroshima.html",
      "lastVerified": "2025-12-31"
    },
    "langkawi": {
      "name": "Langkawi",
      "lat": 6.35,
      "lon": 99.8,
      "region": "asia",
      "climatePattern": "asian-monsoon",
      "tier": 2,
      "tenderPort": false,
      "pageUrl": "/ports/langkawi.html",
      "lastVerified": "2025-12-31"
    },
    "lombok": {
      "name": "Lombok",
      "lat": -8.5833,
      "lon": 116.1167,
      "region": "asia",
      "climatePattern": "asian-monsoon",
      "tier": 2,
      "tenderPort": false,
      "pageUrl": "/ports/lombok.html",
      "lastVerified": "2025-12-31"
    },
    "darwin": {
      "name": "Darwin",
      "lat": -12.4634,
      "lon": 130.8456,
      "region": "pacific",
      "climatePattern": "pacific-tropical",
      "tier": 2,
      "tenderPort": false,
      "pageUrl": "/ports/darwin.html",
      "lastVerified": "2025-12-31"
    },
    "klaipeda": {
      "name": "Klaipeda",
      "lat": 55.7033,
      "lon": 21.1443,
      "region": "northern-europe",
      "climatePattern": "northern-europe",
      "tier": 2,
      "tenderPort": false,
      "pageUrl": "/ports/klaipeda.html",
      "lastVerified": "2025-12-31"
    },
    "rostock": {
      "name": "Rostock (Warnemünde)",
      "lat": 54.1833,
      "lon": 12.0833,
      "region": "northern-europe",
      "climatePattern": "northern-europe",
      "tier": 2,
      "tenderPort": false,
      "pageUrl": "/ports/rostock.html",
      "lastVerified": "2025-12-31"
    },
    "patmos": {
      "name": "Patmos",
      "lat": 37.3111,
      "lon": 26.5478,
      "region": "mediterranean",
      "climatePattern": "mediterranean",
      "tier": 2,
      "tenderPort": false,
      "pageUrl": "/ports/patmos.html",
      "lastVerified": "2025-12-31"
    },
    "zakynthos": {
      "name": "Zakynthos (Zante)",
      "lat": 37.787,
      "lon": 20.8979,
      "region": "mediterranean",
      "climatePattern": "mediterranean",
      "tier": 2,
      "tenderPort": false,
      "pageUrl": "/ports/zakynthos.html",
      "lastVerified": "2025-12-31"
    },
    "walvis-bay": {
      "name": "Walvis Bay",
      "lat": -22.9575,
      "lon": 14.5053,
      "region": "other",
      "climatePattern": "tropical-hurricane",
      "tier": 2,
      "tenderPort": false,
      "pageUrl": "/ports/walvis-bay.html",
      "lastVerified": "2025-12-31"
    },
    "dakar": {
      "name": "Dakar",
      "lat": 14.6928,
      "lon": -17.4467,
      "region": "other",
      "climatePattern": "tropical-hurricane",
      "tier": 2,
      "tenderPort": false,
      "pageUrl": "/ports/dakar.html",
      "lastVerified": "2025-12-31"
    },
    "agadir": {
      "name": "Agadir",
      "lat": 30.4278,
      "lon": -9.5981,
      "region": "other",
      "climatePattern": "tropical-hurricane",
      "tier": 2,
      "tenderPort": false,
      "pageUrl": "/ports/agadir.html",
      "lastVerified": "2025-12-31"
    },
    "cephalonia": {
      "name": "Cephalonia (Kefalonia)",
      "lat": 38.1747,
      "lon": 20.4894,
      "region": "mediterranean",
      "climatePattern": "mediterranean",
      "tier": 2,
      "tenderPort": false,
      "pageUrl": "/ports/cephalonia.html",
      "lastVerified": "2025-12-31"
    },
    "guam": {
      "name": "Guam",
      "lat": 13.4443,
      "lon": 144.7937,
      "region": "other",
      "climatePattern": "tropical-hurricane",
      "tier": 2,
      "tenderPort": false,
      "pageUrl": "/ports/guam.html",
      "lastVerified": "2025-12-31"
    },
    "saipan": {
      "name": "Saipan",
      "lat": 15.2123,
      "lon": 145.7545,
      "region": "other",
      "climatePattern": "tropical-hurricane",
      "tier": 2,
      "tenderPort": false,
      "pageUrl": "/ports/saipan.html",
      "lastVerified": "2025-12-31"
    },
    "palau": {
      "name": "Palau (Koror)",
      "lat": 7.515,
      "lon": 134.5825,
      "region": "other",
      "climatePattern": "tropical-hurricane",
      "tier": 2,
      "tenderPort": false,
      "pageUrl": "/ports/palau.html",
      "lastVerified": "2025-12-31"
    },
    "suva": {
      "name": "Suva",
      "lat": -18.1416,
      "lon": 178.4419,
      "region": "other",
      "climatePattern": "tropical-hurricane",
      "tier": 2,
      "tenderPort": false,
      "pageUrl": "/ports/suva.html",
      "lastVerified": "2025-12-31"
    },
    "luanda": {
      "name": "Luanda",
      "lat": -8.8368,
      "lon": 13.2343,
      "region": "other",
      "climatePattern": "tropical-hurricane",
      "tier": 2,
      "tenderPort": false,
      "pageUrl": "/ports/luanda.html",
      "lastVerified": "2025-12-31"
    },
    "mindelo": {
      "name": "Mindelo",
      "lat": 16.89,
      "lon": -24.98,
      "region": "other",
      "climatePattern": "tropical-hurricane",
      "tier": 2,
      "tenderPort": false,
      "pageUrl": "/ports/mindelo.html",
      "lastVerified": "2025-12-31"
    },
    "portimao": {
      "name": "Portimão",
      "lat": 37.1367,
      "lon": -8.538,
      "region": "other",
      "climatePattern": "tropical-hurricane",
      "tier": 2,
      "tenderPort": false,
      "pageUrl": "/ports/portimao.html",
      "lastVerified": "2025-12-31"
    },
    "gijon": {
      "name": "Gijón",
      "lat": 43.5453,
      "lon": -5.6619,
      "region": "other",
      "climatePattern": "tropical-hurricane",
      "tier": 2,
      "tenderPort": false,
      "pageUrl": "/ports/gijon.html",
      "lastVerified": "2025-12-31"
    },
    "yangon": {
      "name": "Yangon",
      "lat": 16.8661,
      "lon": 96.1951,
      "region": "asia",
      "climatePattern": "asian-monsoon",
      "tier": 2,
      "tenderPort": false,
      "pageUrl": "/ports/yangon.html",
      "lastVerified": "2025-12-31"
    },
    "praia": {
      "name": "Praia",
      "lat": 14.9315,
      "lon": -23.5087,
      "region": "other",
      "climatePattern": "tropical-hurricane",
      "tier": 2,
      "tenderPort": false,
      "pageUrl": "/ports/praia.html",
      "lastVerified": "2025-12-31"
    },
    "lautoka": {
      "name": "Lautoka",
      "lat": -17.6092,
      "lon": 177.453,
      "region": "other",
      "climatePattern": "tropical-hurricane",
      "tier": 2,
      "tenderPort": false,
      "pageUrl": "/ports/lautoka.html",
      "lastVerified": "2025-12-31"
    },
    "sharm-el-sheikh": {
      "name": "Sharm el-Sheikh",
      "lat": 27.8586,
      "lon": 34.3228,
      "region": "other",
      "climatePattern": "tropical-hurricane",
      "tier": 2,
      "tenderPort": false,
      "pageUrl": "/ports/sharm-el-sheikh.html",
      "lastVerified": "2025-12-31"
    },
    "hurghada": {
      "name": "Hurghada",
      "lat": 27.2579,
      "lon": 33.8116,
      "region": "other",
      "climatePattern": "tropical-hurricane",
      "tier": 2,
      "tenderPort": false,
      "pageUrl": "/ports/hurghada.html",
      "lastVerified": "2025-12-31"
    },
    "hakodate": {
      "name": "Hakodate",
      "lat": 41.7688,
      "lon": 140.729,
      "region": "asia",
      "climatePattern": "asian-monsoon",
      "tier": 2,
      "tenderPort": false,
      "pageUrl": "/ports/hakodate.html",
      "lastVerified": "2025-12-31"
    },
    "incheon": {
      "name": "Incheon",
      "lat": 37.4563,
      "lon": 126.7052,
      "region": "asia",
      "climatePattern": "asian-monsoon",
      "tier": 2,
      "tenderPort": false,
      "pageUrl": "/ports/incheon.html",
      "lastVerified": "2025-12-31"
    },
    "kota-kinabalu": {
      "name": "Kota Kinabalu",
      "lat": 5.9749,
      "lon": 116.0724,
      "region": "asia",
      "climatePattern": "asian-monsoon",
      "tier": 2,
      "tenderPort": false,
      "pageUrl": "/ports/kota-kinabalu.html",
      "lastVerified": "2025-12-31"
    },
    "sihanoukville": {
      "name": "Sihanoukville",
      "lat": 10.6093,
      "lon": 103.5296,
      "region": "asia",
      "climatePattern": "asian-monsoon",
      "tier": 2,
      "tenderPort": false,
      "pageUrl": "/ports/sihanoukville.html",
      "lastVerified": "2025-12-31"
    },
    "brunei": {
      "name": "Bandar Seri Begawan (Brunei)",
      "lat": 4.8903,
      "lon": 114.9422,
      "region": "asia",
      "climatePattern": "asian-monsoon",
      "tier": 2,
      "tenderPort": false,
      "pageUrl": "/ports/brunei.html",
      "lastVerified": "2025-12-31"
    },
    "port-moresby": {
      "name": "Port Moresby",
      "lat": -9.4438,
      "lon": 147.1803,
      "region": "other",
      "climatePattern": "tropical-hurricane",
      "tier": 2,
      "tenderPort": false,
      "pageUrl": "/ports/port-moresby.html",
      "lastVerified": "2025-12-31"
    },
    "manila": {
      "name": "Manila",
      "lat": 14.5995,
      "lon": 120.9842,
      "region": "asia",
      "climatePattern": "asian-monsoon",
      "tier": 2,
      "tenderPort": false,
      "pageUrl": "/ports/manila.html",
      "lastVerified": "2025-12-31"
    },
    "ho-chi-minh": {
      "name": "Ho Chi Minh City",
      "lat": 10.8231,
      "lon": 106.6297,
      "region": "asia",
      "climatePattern": "asian-monsoon",
      "tier": 2,
      "tenderPort": false,
      "pageUrl": "/ports/ho-chi-minh.html",
      "lastVerified": "2025-12-31"
    },
    "christchurch": {
      "name": "Christchurch (Lyttelton)",
      "lat": -43.5321,
      "lon": 172.6362,
      "region": "other",
      "climatePattern": "tropical-hurricane",
      "tier": 2,
      "tenderPort": false,
      "pageUrl": "/ports/christchurch.html",
      "lastVerified": "2025-12-31"
    },
    "bay-of-islands": {
      "name": "Bay of Islands",
      "lat": -35.2622,
      "lon": 174.09,
      "region": "other",
      "climatePattern": "tropical-hurricane",
      "tier": 2,
      "tenderPort": false,
      "pageUrl": "/ports/bay-of-islands.html",
      "lastVerified": "2025-12-31"
    },
    "durban": {
      "name": "Durban",
      "lat": -29.8587,
      "lon": 31.0218,
      "region": "other",
      "climatePattern": "tropical-hurricane",
      "tier": 2,
      "tenderPort": false,
      "pageUrl": "/ports/durban.html",
      "lastVerified": "2025-12-31"
    },
    "mombasa": {
      "name": "Mombasa",
      "lat": -4.0435,
      "lon": 39.6682,
      "region": "other",
      "climatePattern": "tropical-hurricane",
      "tier": 2,
      "tenderPort": false,
      "pageUrl": "/ports/mombasa.html",
      "lastVerified": "2025-12-31"
    },
    "hamburg": {
      "name": "Hamburg",
      "lat": 53.5511,
      "lon": 9.9937,
      "region": "northern-europe",
      "climatePattern": "northern-europe",
      "tier": 2,
      "tenderPort": false,
      "pageUrl": "/ports/hamburg.html",
      "lastVerified": "2025-12-31"
    },
    "callao": {
      "name": "Callao (Lima)",
      "lat": -12.0464,
      "lon": -77.1428,
      "region": "other",
      "climatePattern": "tropical-hurricane",
      "tier": 2,
      "tenderPort": false,
      "pageUrl": "/ports/callao.html",
      "lastVerified": "2025-12-31"
    },
    "santos": {
      "name": "Santos",
      "lat": -23.9608,
      "lon": -46.3336,
      "region": "other",
      "climatePattern": "tropical-hurricane",
      "tier": 2,
      "tenderPort": false,
      "pageUrl": "/ports/santos.html",
      "lastVerified": "2025-12-31"
    },
    "olden": {
      "name": "Olden",
      "lat": 61.8311,
      "lon": 6.8142,
      "region": "northern-europe",
      "climatePattern": "northern-europe",
      "tier": 2,
      "tenderPort": false,
      "pageUrl": "/ports/olden.html",
      "lastVerified": "2025-12-31"
    },
    "tianjin": {
      "name": "Tianjin (Beijing)",
      "lat": 39.0842,
      "lon": 117.2009,
      "region": "asia",
      "climatePattern": "asian-monsoon",
      "tier": 2,
      "tenderPort": false,
      "pageUrl": "/ports/tianjin.html",
      "lastVerified": "2025-12-31"
    },
    "taipei": {
      "name": "Taipei (Keelung)",
      "lat": 25.1276,
      "lon": 121.7392,
      "region": "asia",
      "climatePattern": "asian-monsoon",
      "tier": 2,
      "tenderPort": false,
      "pageUrl": "/ports/taipei.html",
      "lastVerified": "2025-12-31"
    },
    "napier": {
      "name": "Napier",
      "lat": -39.4902,
      "lon": 176.912,
      "region": "other",
      "climatePattern": "tropical-hurricane",
      "tier": 2,
      "tenderPort": false,
      "pageUrl": "/ports/napier.html",
      "lastVerified": "2025-12-31"
    },
    "mystery-island": {
      "name": "Mystery Island",
      "lat": -20.0756,
      "lon": 169.8511,
      "region": "other",
      "climatePattern": "tropical-hurricane",
      "tier": 2,
      "tenderPort": false,
      "pageUrl": "/ports/mystery-island.html",
      "lastVerified": "2025-12-31"
    },
    "lifou": {
      "name": "Lifou",
      "lat": -20.9,
      "lon": 167.2333,
      "region": "other",
      "climatePattern": "tropical-hurricane",
      "tier": 2,
      "tenderPort": false,
      "pageUrl": "/ports/lifou.html",
      "lastVerified": "2025-12-31"
    },
    "dravuni": {
      "name": "Dravuni Island",
      "lat": -18.7667,
      "lon": 178.5333,
      "region": "other",
      "climatePattern": "tropical-hurricane",
      "tier": 2,
      "tenderPort": false,
      "pageUrl": "/ports/dravuni.html",
      "lastVerified": "2025-12-31"
    },
    "port-elizabeth": {
      "name": "Port Elizabeth (Gqeberha)",
      "lat": -33.9608,
      "lon": 25.6022,
      "region": "other",
      "climatePattern": "tropical-hurricane",
      "tier": 2,
      "tenderPort": false,
      "pageUrl": "/ports/port-elizabeth.html",
      "lastVerified": "2025-12-31"
    },
    "maputo": {
      "name": "Maputo",
      "lat": -25.9692,
      "lon": 32.5732,
      "region": "other",
      "climatePattern": "tropical-hurricane",
      "tier": 2,
      "tenderPort": false,
      "pageUrl": "/ports/maputo.html",
      "lastVerified": "2025-12-31"
    },
    "nosy-be": {
      "name": "Nosy Be",
      "lat": -13.3167,
      "lon": 48.2667,
      "region": "other",
      "climatePattern": "tropical-hurricane",
      "tier": 2,
      "tenderPort": false,
      "pageUrl": "/ports/nosy-be.html",
      "lastVerified": "2025-12-31"
    },
    "recife": {
      "name": "Recife",
      "lat": -8.0476,
      "lon": -34.877,
      "region": "other",
      "climatePattern": "tropical-hurricane",
      "tier": 2,
      "tenderPort": false,
      "pageUrl": "/ports/recife.html",
      "lastVerified": "2025-12-31"
    },
    "catania": {
      "name": "Catania",
      "lat": 37.5079,
      "lon": 15.083,
      "region": "mediterranean",
      "climatePattern": "mediterranean",
      "tier": 2,
      "tenderPort": false,
      "pageUrl": "/ports/catania.html",
      "lastVerified": "2025-12-31"
    },
    "picton": {
      "name": "Picton",
      "lat": -41.29,
      "lon": 174.001,
      "region": "other",
      "climatePattern": "tropical-hurricane",
      "tier": 2,
      "tenderPort": false,
      "pageUrl": "/ports/picton.html",
      "lastVerified": "2025-12-31"
    },
    "fortaleza": {
      "name": "Fortaleza",
      "lat": -3.7172,
      "lon": -38.5433,
      "region": "other",
      "climatePattern": "tropical-hurricane",
      "tier": 2,
      "tenderPort": false,
      "pageUrl": "/ports/fortaleza.html",
      "lastVerified": "2025-12-31"
    },
    "punta-arenas": {
      "name": "Punta Arenas",
      "lat": -53.1638,
      "lon": -70.9171,
      "region": "other",
      "climatePattern": "tropical-hurricane",
      "tier": 2,
      "tenderPort": false,
      "pageUrl": "/ports/punta-arenas.html",
      "lastVerified": "2025-12-31"
    },
    "manta": {
      "name": "Manta",
      "lat": -0.95,
      "lon": -80.7333,
      "region": "other",
      "climatePattern": "tropical-hurricane",
      "tier": 2,
      "tenderPort": false,
      "pageUrl": "/ports/manta.html",
      "lastVerified": "2025-12-31"
    },
    "guayaquil": {
      "name": "Guayaquil",
      "lat": -2.1894,
      "lon": -79.8891,
      "region": "other",
      "climatePattern": "tropical-hurricane",
      "tier": 2,
      "tenderPort": false,
      "pageUrl": "/ports/guayaquil.html",
      "lastVerified": "2025-12-31"
    },
    "manzanillo": {
      "name": "Manzanillo",
      "lat": 19.05,
      "lon": -104.3167,
      "region": "other",
      "climatePattern": "tropical-hurricane",
      "tier": 2,
      "tenderPort": false,
      "pageUrl": "/ports/manzanillo.html",
      "lastVerified": "2025-12-31"
    },
    "zihuatanejo": {
      "name": "Zihuatanejo",
      "lat": 17.6417,
      "lon": -101.5514,
      "region": "other",
      "climatePattern": "tropical-hurricane",
      "tier": 2,
      "tenderPort": false,
      "pageUrl": "/ports/zihuatanejo.html",
      "lastVerified": "2025-12-31"
    },
    "huatulco": {
      "name": "Huatulco",
      "lat": 15.7833,
      "lon": -96.1333,
      "region": "other",
      "climatePattern": "tropical-hurricane",
      "tier": 2,
      "tenderPort": false,
      "pageUrl": "/ports/huatulco.html",
      "lastVerified": "2025-12-31"
    },
    "puntarenas": {
      "name": "Puntarenas",
      "lat": 9.9762,
      "lon": -84.8383,
      "region": "other",
      "climatePattern": "tropical-hurricane",
      "tier": 2,
      "tenderPort": false,
      "pageUrl": "/ports/puntarenas.html",
      "lastVerified": "2025-12-31"
    },
    "milford-sound": {
      "name": "Milford Sound",
      "lat": -44.6414,
      "lon": 167.8975,
      "region": "other",
      "climatePattern": "tropical-hurricane",
      "tier": 2,
      "tenderPort": false,
      "pageUrl": "/ports/milford-sound.html",
      "lastVerified": "2025-12-31"
    },
    "doubtful-sound": {
      "name": "Doubtful Sound",
      "lat": -45.3,
      "lon": 166.95,
      "region": "other",
      "climatePattern": "tropical-hurricane",
      "tier": 2,
      "tenderPort": false,
      "pageUrl": "/ports/doubtful-sound.html",
      "lastVerified": "2025-12-31"
    },
    "corinto": {
      "name": "Corinto",
      "lat": 12.4833,
      "lon": -87.1667,
      "region": "other",
      "climatePattern": "tropical-hurricane",
      "tier": 2,
      "tenderPort": false,
      "pageUrl": "/ports/corinto.html",
      "lastVerified": "2025-12-31"
    },
    "puerto-caldera": {
      "name": "Puerto Caldera",
      "lat": 9.9167,
      "lon": -84.7167,
      "region": "other",
      "climatePattern": "tropical-hurricane",
      "tier": 2,
      "tenderPort": false,
      "pageUrl": "/ports/puerto-caldera.html",
      "lastVerified": "2025-12-31"
    },
    "pitcairn": {
      "name": "Pitcairn Island",
      "lat": -25.0667,
      "lon": -130.1,
      "region": "other",
      "climatePattern": "tropical-hurricane",
      "tier": 2,
      "tenderPort": false,
      "pageUrl": "/ports/pitcairn.html",
      "lastVerified": "2025-12-31"
    },
    "easter-island": {
      "name": "Easter Island (Rapa Nui)",
      "lat": -27.1127,
      "lon": -109.3497,
      "region": "other",
      "climatePattern": "tropical-hurricane",
      "tier": 2,
      "tenderPort": false,
      "pageUrl": "/ports/easter-island.html",
      "lastVerified": "2025-12-31"
    },
    "south-georgia": {
      "name": "South Georgia Island",
      "lat": -54.25,
      "lon": -36.75,
      "region": "other",
      "climatePattern": "tropical-hurricane",
      "tier": 2,
      "tenderPort": false,
      "pageUrl": "/ports/south-georgia.html",
      "lastVerified": "2025-12-31"
    },
    "tristan-da-cunha": {
      "name": "Tristan da Cunha",
      "lat": -37.1,
      "lon": -12.2833,
      "region": "other",
      "climatePattern": "tropical-hurricane",
      "tier": 2,
      "tenderPort": false,
      "pageUrl": "/ports/tristan-da-cunha.html",
      "lastVerified": "2025-12-31"
    },
    "st-helena": {
      "name": "St. Helena",
      "lat": -15.965,
      "lon": -5.7089,
      "region": "other",
      "climatePattern": "tropical-hurricane",
      "tier": 2,
      "tenderPort": false,
      "pageUrl": "/ports/st-helena.html",
      "lastVerified": "2025-12-31"
    },
    "ascension": {
      "name": "Ascension Island",
      "lat": -7.9467,
      "lon": -14.3559,
      "region": "other",
      "climatePattern": "tropical-hurricane",
      "tier": 2,
      "tenderPort": false,
      "pageUrl": "/ports/ascension.html",
      "lastVerified": "2025-12-31"
    },
    "mumbai": {
      "name": "Mumbai",
      "lat": 18.922,
      "lon": 72.8347,
      "region": "asia",
      "climatePattern": "asian-monsoon",
      "tier": 2,
      "tenderPort": false,
      "pageUrl": "/ports/mumbai.html",
      "lastVerified": "2025-12-31"
    },
    "cochin": {
      "name": "Cochin (Kochi)",
      "lat": 9.9312,
      "lon": 76.2673,
      "region": "asia",
      "climatePattern": "asian-monsoon",
      "tier": 2,
      "tenderPort": false,
      "pageUrl": "/ports/cochin.html",
      "lastVerified": "2025-12-31"
    },
    "charleston": {
      "name": "Charleston",
      "lat": 32.7765,
      "lon": -79.9311,
      "region": "other",
      "climatePattern": "tropical-hurricane",
      "tier": 2,
      "tenderPort": false,
      "pageUrl": "/ports/charleston.html",
      "lastVerified": "2025-12-31"
    },
    "freeport": {
      "name": "Freeport (Grand Bahama)",
      "lat": 26.5285,
      "lon": -78.6947,
      "region": "caribbean",
      "climatePattern": "tropical-hurricane",
      "tier": 2,
      "tenderPort": false,
      "pageUrl": "/ports/freeport.html",
      "lastVerified": "2025-12-31"
    },
    "ft-lauderdale": {
      "name": "Fort Lauderdale",
      "lat": 26.1224,
      "lon": -80.1373,
      "region": "other",
      "climatePattern": "tropical-hurricane",
      "tier": 2,
      "tenderPort": false,
      "pageUrl": "/ports/ft-lauderdale.html",
      "lastVerified": "2025-12-31"
    },
    "gatun-lake": {
      "name": "Gatun Lake",
      "lat": 9.2,
      "lon": -79.92,
      "region": "other",
      "climatePattern": "tropical-hurricane",
      "tier": 2,
      "tenderPort": false,
      "pageUrl": "/ports/gatun-lake.html",
      "lastVerified": "2025-12-31"
    },
    "harvest-caye": {
      "name": "Harvest Caye",
      "lat": 16.4333,
      "lon": -88.4167,
      "region": "caribbean",
      "climatePattern": "tropical-hurricane",
      "tier": 2,
      "tenderPort": false,
      "pageUrl": "/ports/harvest-caye.html",
      "lastVerified": "2025-12-31"
    },
    "jacksonville": {
      "name": "Jacksonville",
      "lat": 30.3322,
      "lon": -81.6557,
      "region": "other",
      "climatePattern": "tropical-hurricane",
      "tier": 2,
      "tenderPort": false,
      "pageUrl": "/ports/jacksonville.html",
      "lastVerified": "2025-12-31"
    },
    "miami": {
      "name": "Miami",
      "lat": 25.7617,
      "lon": -80.1918,
      "region": "other",
      "climatePattern": "tropical-hurricane",
      "tier": 2,
      "tenderPort": false,
      "pageUrl": "/ports/miami.html",
      "lastVerified": "2025-12-31"
    },
    "philipsburg": {
      "name": "Philipsburg (St. Maarten)",
      "lat": 18.0237,
      "lon": -63.0458,
      "region": "caribbean",
      "climatePattern": "tropical-hurricane",
      "tier": 2,
      "tenderPort": false,
      "pageUrl": "/ports/philipsburg.html",
      "lastVerified": "2025-12-31"
    },
    "puerto-limon": {
      "name": "Puerto Limón",
      "lat": 9.9903,
      "lon": -83.0298,
      "region": "other",
      "climatePattern": "tropical-hurricane",
      "tier": 2,
      "tenderPort": false,
      "pageUrl": "/ports/puerto-limon.html",
      "lastVerified": "2025-12-31"
    },
    "royal-beach-club-nassau": {
      "name": "Royal Beach Club Paradise Island",
      "lat": 25.0887,
      "lon": -77.3153,
      "region": "caribbean",
      "climatePattern": "tropical-hurricane",
      "tier": 2,
      "tenderPort": false,
      "pageUrl": "/ports/royal-beach-club-nassau.html",
      "lastVerified": "2025-12-31"
    }
  },
  "climatePatterns": {
    "tropical-hurricane": {
      "description": "Tropical climate with Atlantic/Caribbean hurricane exposure",
      "requiredTokens": [
        "hurricane"
      ],
      "requiredMonthRanges": [
        {
          "start": "June",
          "end": "November",
          "context": "hurricane season"
        }
      ],
      "forbiddenTokens": [
        "snow",
        "freeze",
        "polar",
        "arctic",
        "glacier",
        "tundra",
        "northern lights"
      ],
      "tempRangeF": {
        "min": 65,
        "max": 95
      },
      "peakMonths": [
        "December",
        "January",
        "February",
        "March",
        "April"
      ],
      "lowMonths": [
        "September",
        "October"
      ],
      "hazardNote": "Atlantic hurricane season runs June 1 through November 30, with peak risk in September and October."
    },
    "mediterranean": {
      "description": "Mediterranean climate with dry summers and mild winters",
      "requiredTokens": [
        "dry",
        "mild"
      ],
      "forbiddenTokens": [
        "hurricane",
        "monsoon",
        "typhoon",
        "tropical storm",
        "glacier"
      ],
      "tempRangeF": {
        "min": 45,
        "max": 95
      },
      "peakMonths": [
        "May",
        "June",
        "July",
        "August",
        "September"
      ],
      "lowMonths": [
        "December",
        "January",
        "February"
      ],
      "hazardNote": "Summer can be very hot; spring and fall offer ideal temperatures."
    },
    "alaska": {
      "description": "Subarctic maritime climate with cool summers and cold winters",
      "requiredTokens": [
        "glacier",
        "cool"
      ],
      "forbiddenTokens": [
        "hurricane",
        "tropical",
        "reef",
        "snorkel",
        "beach club"
      ],
      "tempRangeF": {
        "min": 20,
        "max": 70
      },
      "peakMonths": [
        "June",
        "July",
        "August"
      ],
      "lowMonths": [
        "November",
        "December",
        "January",
        "February",
        "March"
      ],
      "hazardNote": "Cruise season runs May through September. Expect rain; pack layers."
    },
    "northern-europe": {
      "description": "Maritime temperate climate with mild summers and cool winters",
      "requiredTokens": [
        "mild",
        "maritime"
      ],
      "forbiddenTokens": [
        "hurricane",
        "tropical",
        "monsoon"
      ],
      "tempRangeF": {
        "min": 30,
        "max": 75
      },
      "peakMonths": [
        "June",
        "July",
        "August"
      ],
      "lowMonths": [
        "December",
        "January",
        "February"
      ],
      "hazardNote": "Weather can be unpredictable; pack layers and rain gear."
    },
    "pacific-tropical": {
      "description": "Pacific tropical climate with potential typhoon exposure",
      "requiredTokens": [
        "tropical"
      ],
      "requiredMonthRanges": [
        {
          "start": "June",
          "end": "November",
          "context": "typhoon season"
        }
      ],
      "forbiddenTokens": [
        "hurricane",
        "glacier",
        "arctic"
      ],
      "tempRangeF": {
        "min": 70,
        "max": 90
      },